{
  "gyms": {
    "002c8fb503d442f1a0dde469756531ab.16": {
      "guid": "002c8fb503d442f1a0dde469756531ab.16",
      "lat": 22.544757,
      "lng": 88.377681,
      "name": "Shibtala Math Entrance"
    },
    "004ea1d7d0dd4f099abc1cf505135927.16": {
      "guid": "004ea1d7d0dd4f099abc1cf505135927.16",
      "lat": 22.596581,
      "lng": 88.371926,
      "name": "Sikdar Bagan, Hatibagan "
    },
    "0120519b6cdc4c30a0a86ed20cba6324.16": {
      "guid": "0120519b6cdc4c30a0a86ed20cba6324.16",
      "lat": 22.486779,
      "lng": 88.376322,
      "name": "Jyoti Sangha Library"
    },
    "0122299b8cf04338b40fa1896dd0256b.16": {
      "guid": "0122299b8cf04338b40fa1896dd0256b.16",
      "lat": 22.580263,
      "lng": 88.319561,
      "name": "Bust of Swami Vivekananda"
    },
    "016a164e00914686929088096284f477.16": {
      "guid": "016a164e00914686929088096284f477.16",
      "lat": 22.867407,
      "lng": 88.401583,
      "name": "Masjid Manbod Sardar"
    },
    "018e1ea478dd4bd2aa4546d7d4755d7a.16": {
      "guid": "018e1ea478dd4bd2aa4546d7d4755d7a.16",
      "lat": 22.556444,
      "lng": 88.314817,
      "name": "Shalimar Railway Platform"
    },
    "01b73266652a41a6a4ae39f49eadfce8.16": {
      "guid": "01b73266652a41a6a4ae39f49eadfce8.16",
      "lat": 22.512978,
      "lng": 88.325826,
      "name": "Hanuman Temple New Alipore"
    },
    "02be314bafb7491db28af13987bb9d53.16": {
      "guid": "02be314bafb7491db28af13987bb9d53.16",
      "lat": 22.834523,
      "lng": 88.383217,
      "name": "Shankarnarayan Bose"
    },
    "02ed65a8774b4968891dd807bb8c0d9e.16": {
      "guid": "02ed65a8774b4968891dd807bb8c0d9e.16",
      "isEx": true,
      "lat": 22.487425,
      "lng": 88.349449,
      "name": "Nehru Playground"
    },
    "032b49d73a6246d59f37cbef88d359f1.16": {
      "guid": "032b49d73a6246d59f37cbef88d359f1.16",
      "lat": 22.889571,
      "lng": 88.415903,
      "name": "Mahakali Temple"
    },
    "03759cae66e349389340eec4ca39e257.16": {
      "guid": "03759cae66e349389340eec4ca39e257.16",
      "isEx": true,
      "lat": 22.563969,
      "lng": 88.345202,
      "name": "Statue of Goushto Pal"
    },
    "03e21baf528547839ea24f6e447d3b94.16": {
      "guid": "03e21baf528547839ea24f6e447d3b94.16",
      "lat": 22.629531,
      "lng": 88.421004,
      "name": "Shani Temple"
    },
    "0413a9f9e6aa4e2584ebc96666d490e2.16": {
      "guid": "0413a9f9e6aa4e2584ebc96666d490e2.16",
      "isEx": true,
      "lat": 22.568963,
      "lng": 88.41011,
      "name": "Salt Lake Stadium"
    },
    "044dd41ed7944dcf85ef0b5f98c0386c.16": {
      "guid": "044dd41ed7944dcf85ef0b5f98c0386c.16",
      "lat": 22.541416,
      "lng": 88.354196,
      "name": "Bust of Bhagat Singh"
    },
    "04b74eaa809640e8909b3f0b1cb4d82f.16": {
      "guid": "04b74eaa809640e8909b3f0b1cb4d82f.16",
      "lat": 22.59489,
      "lng": 88.289424,
      "name": "jai hanuman mandir"
    },
    "060d37a185614e3fb528895772529758.16": {
      "guid": "060d37a185614e3fb528895772529758.16",
      "isEx": true,
      "lat": 22.971152,
      "lng": 88.463074,
      "name": "Bidhan Roy Statue in Kalyani"
    },
    "0639e972333146df898e412b7d5e7076.16": {
      "guid": "0639e972333146df898e412b7d5e7076.16",
      "lat": 22.693182,
      "lng": 88.466355,
      "name": "Small Shiva Temple"
    },
    "067704c36782489c8973c80def8af185.16": {
      "guid": "067704c36782489c8973c80def8af185.16",
      "lat": 22.556749,
      "lng": 88.292371,
      "name": "Dr. Vishwanath Mudgal Commemorative Plaque"
    },
    "06ac56d3006c4b47a59d15992637d586.16": {
      "guid": "06ac56d3006c4b47a59d15992637d586.16",
      "lat": 22.581439,
      "lng": 88.290052,
      "name": "Tarun Sangha Library"
    },
    "06f1f618a0e549e78f9d059d0818c8e2.16": {
      "guid": "06f1f618a0e549e78f9d059d0818c8e2.16",
      "lat": 22.478721,
      "lng": 88.355772,
      "name": "Shani Temple , Gachtala"
    },
    "074b7488aef34d718d6b1f29998c53bd.16": {
      "guid": "074b7488aef34d718d6b1f29998c53bd.16",
      "lat": 22.696307,
      "lng": 88.366271,
      "name": "Jotileshwar Mandir"
    },
    "07ccbe6553dc42a1a8e0df350230a964.16": {
      "guid": "07ccbe6553dc42a1a8e0df350230a964.16",
      "isEx": true,
      "lat": 22.518967,
      "lng": 88.352841,
      "name": "Lions Children's Park"
    },
    "07ced5a4069a4c519d535904844e643d.16": {
      "guid": "07ced5a4069a4c519d535904844e643d.16",
      "lat": 22.502985,
      "lng": 88.400212,
      "name": "Shiv Kali Temple"
    },
    "07e01056dddf4a94a7a9c710020b4b7a.16": {
      "guid": "07e01056dddf4a94a7a9c710020b4b7a.16",
      "lat": 22.662744,
      "lng": 88.391586,
      "name": "Belgharia Athletic Club"
    },
    "080d4d6ae57d4a50a23b876593b16121.16": {
      "guid": "080d4d6ae57d4a50a23b876593b16121.16",
      "lat": 22.503753,
      "lng": 88.376986,
      "name": "Maa Manasha Temple"
    },
    "089d01b8d28849e59bf7db2e6d20c78c.16": {
      "guid": "089d01b8d28849e59bf7db2e6d20c78c.16",
      "lat": 22.844389,
      "lng": 88.375941,
      "name": "vidyasagar park"
    },
    "08f3d005a0e04161bdd0ac6d60852d4f.16": {
      "guid": "08f3d005a0e04161bdd0ac6d60852d4f.16",
      "lat": 22.63247,
      "lng": 88.414132,
      "name": "Shani Baba O Ma Kali Mandir"
    },
    "09088e5f51cc47f7b430a09936ed842d.16": {
      "guid": "09088e5f51cc47f7b430a09936ed842d.16",
      "lat": 22.889033,
      "lng": 88.424471,
      "name": "6 no bijoynagor water tank"
    },
    "0955bf9130fa40cd84515d7815e2cab9.16": {
      "guid": "0955bf9130fa40cd84515d7815e2cab9.16",
      "lat": 22.575284,
      "lng": 88.362679,
      "name": "Soumendranath Bandhopadhay Statue"
    },
    "099722f660c140f282ee2e9fdc9d2526.16": {
      "guid": "099722f660c140f282ee2e9fdc9d2526.16",
      "lat": 22.829492,
      "lng": 88.381948,
      "name": "Brahma Kumaris Ashram"
    },
    "099b6887a37e4428aefaa1ab19b4c3b8.16": {
      "guid": "099b6887a37e4428aefaa1ab19b4c3b8.16",
      "lat": 22.566348,
      "lng": 88.276594,
      "name": "Water Tank"
    },
    "09a8f0f14b5b48128699c8618856f381.16": {
      "guid": "09a8f0f14b5b48128699c8618856f381.16",
      "isEx": true,
      "lat": 22.597602,
      "lng": 88.40448,
      "name": "Kali Ma Idol"
    },
    "09bf300c50f4443389971a72e28abac9.16": {
      "guid": "09bf300c50f4443389971a72e28abac9.16",
      "lat": 22.696748,
      "lng": 88.462528,
      "name": "Bust of Sukanta Bhattacharyya"
    },
    "0a419079021b4dae9e65a9422f03d716.16": {
      "guid": "0a419079021b4dae9e65a9422f03d716.16",
      "lat": 22.920726,
      "lng": 88.422537,
      "name": "Batala Shani Mandir"
    },
    "0a4c38ab79cf430f9020b29af3441451.16": {
      "guid": "0a4c38ab79cf430f9020b29af3441451.16",
      "lat": 22.551353,
      "lng": 88.419366,
      "name": "Trinathpally Children's Park"
    },
    "0a81410cdce84c45958d4ca3d84cd823.16": {
      "guid": "0a81410cdce84c45958d4ca3d84cd823.16",
      "lat": 22.603303,
      "lng": 88.366987,
      "name": "Sri Gaudiya Math"
    },
    "0af6164a47944dbc861b390ac94551d0.16": {
      "guid": "0af6164a47944dbc861b390ac94551d0.16",
      "lat": 22.918891,
      "lng": 88.395072,
      "name": "Gate Of Bandel Church"
    },
    "0b8f083048174601a708be7d44b7f4cc.16": {
      "guid": "0b8f083048174601a708be7d44b7f4cc.16",
      "lat": 22.564692,
      "lng": 88.313083,
      "name": "Shree Shree Sarbamangala Kaali Mata Mandir"
    },
    "0bf89de707e44bc09caa29f8f5a71e84.16": {
      "guid": "0bf89de707e44bc09caa29f8f5a71e84.16",
      "lat": 22.518745,
      "lng": 88.298951,
      "name": "Small Shiv Temple"
    },
    "0c12b2b6a4734345926ecbba80a93a44.16": {
      "guid": "0c12b2b6a4734345926ecbba80a93a44.16",
      "lat": 22.500906,
      "lng": 88.221317,
      "name": "Children's Park"
    },
    "0d33a68c64d6422ababcf6e29567586b.16": {
      "guid": "0d33a68c64d6422ababcf6e29567586b.16",
      "lat": 22.483061,
      "lng": 88.386226,
      "name": "Shib &  Gouri temple"
    },
    "0d4af975210e4c6a901cd2a542051277.16": {
      "guid": "0d4af975210e4c6a901cd2a542051277.16",
      "lat": 22.446009,
      "lng": 88.417593,
      "name": "Tagore Statue"
    },
    "0d583810a2af4bfaa149cef3ba71e791.16": {
      "guid": "0d583810a2af4bfaa149cef3ba71e791.16",
      "isEx": true,
      "lat": 22.560207,
      "lng": 88.369466,
      "name": "Ramlila Park"
    },
    "0dd135911032458f826f36e61f8a0fb6.16": {
      "guid": "0dd135911032458f826f36e61f8a0fb6.16",
      "lat": 22.642836,
      "lng": 88.438807,
      "name": "Netaji Subash Chandra Bose International Airport"
    },
    "0e28c00380dd4a55a7e3466423258562.16": {
      "guid": "0e28c00380dd4a55a7e3466423258562.16",
      "isEx": true,
      "lat": 22.481813,
      "lng": 88.347659,
      "name": "Wireless K.M.C Park"
    },
    "0f0e5bbd53ee4125906b76e7815de32b.16": {
      "guid": "0f0e5bbd53ee4125906b76e7815de32b.16",
      "lat": 22.765126,
      "lng": 88.5418,
      "name": "Sani Mandir"
    },
    "0f628bdcd793458593aa9c686d0c1f9c.16": {
      "guid": "0f628bdcd793458593aa9c686d0c1f9c.16",
      "lat": 22.578312,
      "lng": 88.317298,
      "name": "Ramkrishna and Sharoda Temple"
    },
    "0fc462048f1448a68769339b34f356fb.16": {
      "guid": "0fc462048f1448a68769339b34f356fb.16",
      "lat": 22.594801,
      "lng": 88.308145,
      "name": "Tara Ma Temple"
    },
    "0ff4fdbb947f4b88beafe356fbdb753b.16": {
      "guid": "0ff4fdbb947f4b88beafe356fbdb753b.16",
      "lat": 22.688967,
      "lng": 88.456961,
      "name": "Trishakti Temple"
    },
    "1009bb9504ec4212a2b0ef8b5b8f876f.16": {
      "guid": "1009bb9504ec4212a2b0ef8b5b8f876f.16",
      "lat": 22.972536,
      "lng": 88.44329,
      "name": "Lake Park"
    },
    "10815788e2994f1a9d4d0aa8ba5f55d0.16": {
      "guid": "10815788e2994f1a9d4d0aa8ba5f55d0.16",
      "lat": 22.944988,
      "lng": 88.450523,
      "name": "Kanchrapara Railway Station"
    },
    "1084c364a0bb4c6e8fa9d1d708e78013.16": {
      "guid": "1084c364a0bb4c6e8fa9d1d708e78013.16",
      "lat": 22.66048,
      "lng": 88.377082,
      "name": "Temple On BT Road"
    },
    "10cfc578036443ad8131fe76497f90f8.16": {
      "guid": "10cfc578036443ad8131fe76497f90f8.16",
      "lat": 22.50731,
      "lng": 88.337313,
      "name": "Children's Park"
    },
    "10d92a40464d45f0b81d63902338dc8c.16": {
      "guid": "10d92a40464d45f0b81d63902338dc8c.16",
      "lat": 22.621022,
      "lng": 88.392275,
      "name": "Swami Vivekanand Chowk"
    },
    "114f1237ee5a420d979b7118cf4ad72e.16": {
      "guid": "114f1237ee5a420d979b7118cf4ad72e.16",
      "lat": 22.57225,
      "lng": 88.43324,
      "name": "Fountain"
    },
    "117fdfa92aef43f090647cc7aba2710c.16": {
      "guid": "117fdfa92aef43f090647cc7aba2710c.16",
      "isEx": true,
      "lat": 22.58209,
      "lng": 88.453043,
      "name": "Road Art"
    },
    "126feacb6faf4226aa817acf1564160f.16": {
      "guid": "126feacb6faf4226aa817acf1564160f.16",
      "lat": 22.579067,
      "lng": 88.471532,
      "name": "Swastika Landmark Narkel Square"
    },
    "135a1a668b124434b31a5b243d69a0a2.16": {
      "guid": "135a1a668b124434b31a5b243d69a0a2.16",
      "lat": 22.548751,
      "lng": 88.357872,
      "name": "Seventh Day Adventist Church"
    },
    "136b0fa2a2af48fdb37c6332db4b3f9b.16": {
      "guid": "136b0fa2a2af48fdb37c6332db4b3f9b.16",
      "lat": 22.414044,
      "lng": 88.434352,
      "name": "Subhasgram Train Station "
    },
    "13f46fb9584d4fa1864a391180a31dee.16": {
      "guid": "13f46fb9584d4fa1864a391180a31dee.16",
      "lat": 22.56045,
      "lng": 88.296474,
      "name": "MA Kali Temple RONO"
    },
    "143fa0105b6e42138151559b4b1931c9.16": {
      "guid": "143fa0105b6e42138151559b4b1931c9.16",
      "lat": 22.804724,
      "lng": 88.37595,
      "name": "Thako Babar Mondir"
    },
    "148f74787824433693727cdb37bba0af.16": {
      "guid": "148f74787824433693727cdb37bba0af.16",
      "lat": 22.552496,
      "lng": 88.363427,
      "name": "Blessed Mother Teresa"
    },
    "14afd0349b324bff9dab15855cead2db.16": {
      "guid": "14afd0349b324bff9dab15855cead2db.16",
      "lat": 22.556388,
      "lng": 88.415703,
      "name": "Buro Baba Mandir"
    },
    "1552a034544b430f83178c31bcbb5954.16": {
      "guid": "1552a034544b430f83178c31bcbb5954.16",
      "lat": 22.481213,
      "lng": 88.343228,
      "name": "Sitala Mata Mandir"
    },
    "15b1bed31e984c6fa83fb09cc2029aa3.16": {
      "guid": "15b1bed31e984c6fa83fb09cc2029aa3.16",
      "lat": 22.582637,
      "lng": 88.421448,
      "name": "Karunamayee Park Gate"
    },
    "15d2099cd3fa452a83655ad0d81974f6.16": {
      "guid": "15d2099cd3fa452a83655ad0d81974f6.16",
      "lat": 22.588962,
      "lng": 88.366455,
      "name": "Kali Mandir "
    },
    "15ec58498298498b9548c04ddda1d106.16": {
      "guid": "15ec58498298498b9548c04ddda1d106.16",
      "lat": 22.513935,
      "lng": 88.364554,
      "name": "Rabindranath As Valmiki"
    },
    "16005942a8474932b506b52a8094c86c.16": {
      "guid": "16005942a8474932b506b52a8094c86c.16",
      "lat": 22.582402,
      "lng": 88.366213,
      "name": "Sadharan Brahmo Samaj"
    },
    "161464b30a9d4dfb97680102d87b2995.16": {
      "guid": "161464b30a9d4dfb97680102d87b2995.16",
      "lat": 22.682342,
      "lng": 88.419807,
      "name": "Village wall paint"
    },
    "169f77896d994ba0a932e237fac428b0.16": {
      "guid": "169f77896d994ba0a932e237fac428b0.16",
      "lat": 22.634834,
      "lng": 88.417509,
      "name": "Dum Dum Town Hall "
    },
    "16c74716473743898164572fe61f8b54.16": {
      "guid": "16c74716473743898164572fe61f8b54.16",
      "lat": 22.893678,
      "lng": 88.412715,
      "name": "Old Shiva Temple"
    },
    "16d2c75a5303429ba7917fb548f1d3c6.16": {
      "guid": "16d2c75a5303429ba7917fb548f1d3c6.16",
      "lat": 22.57687,
      "lng": 88.352397,
      "name": "Saifee Masjid"
    },
    "16e905dce598433999a7e43258a18da8.16": {
      "guid": "16e905dce598433999a7e43258a18da8.16",
      "lat": 22.749232,
      "lng": 88.516432,
      "name": "Sri Sri Radhagobindo Mandir "
    },
    "1773ab9d9aa24ebba63509014ed5d7f0.16": {
      "guid": "1773ab9d9aa24ebba63509014ed5d7f0.16",
      "isEx": true,
      "lat": 22.569195,
      "lng": 88.420959,
      "name": "MIG-21 Replica Statue"
    },
    "17e319d959c74f9196b3f76a632fbb89.16": {
      "guid": "17e319d959c74f9196b3f76a632fbb89.16",
      "lat": 22.597936,
      "lng": 88.427334,
      "name": "Children's Park"
    },
    "180e1c2da82d45c399c7b01c800e405c.16": {
      "guid": "180e1c2da82d45c399c7b01c800e405c.16",
      "lat": 22.539545,
      "lng": 88.346741,
      "name": "Villager Marble Mural"
    },
    "1825303c4f404c069a3c4eaf5c129a87.16": {
      "guid": "1825303c4f404c069a3c4eaf5c129a87.16",
      "lat": 22.481728,
      "lng": 88.349334,
      "name": "Bottala Shiv Mandir"
    },
    "1826d7da3c1945dda22b5b9c194dc833.16": {
      "guid": "1826d7da3c1945dda22b5b9c194dc833.16",
      "lat": 22.470792,
      "lng": 88.385311,
      "name": "Statue of Swami Vivekananda"
    },
    "18ac1b60a4b3492588738fa0dfbedc97.16": {
      "guid": "18ac1b60a4b3492588738fa0dfbedc97.16",
      "lat": 22.702261,
      "lng": 88.342142,
      "name": "Statue Of Vivekananda, Konnagar, Hooghly "
    },
    "18c193bd84ba42a7863e61b68d1017f5.16": {
      "guid": "18c193bd84ba42a7863e61b68d1017f5.16",
      "lat": 22.472863,
      "lng": 88.364573,
      "name": "Santoshbala Library"
    },
    "18d63109db914b869c00b4a680dc527f.16": {
      "guid": "18d63109db914b869c00b4a680dc527f.16",
      "lat": 22.634973,
      "lng": 88.407352,
      "name": "Subash Nagar Kali Temple"
    },
    "18e3e2aba6214b469355ffa77af5c82a.16": {
      "guid": "18e3e2aba6214b469355ffa77af5c82a.16",
      "lat": 22.423243,
      "lng": 88.412334,
      "name": "Bust Of Rabindranath"
    },
    "1997c0c1cb464706a77f1ddb9a496363.16": {
      "guid": "1997c0c1cb464706a77f1ddb9a496363.16",
      "lat": 22.571657,
      "lng": 88.407958,
      "name": "Salt Lake Stadium Gate 1"
    },
    "19cbef6393d44b6cadf8784a5bef2477.16": {
      "guid": "19cbef6393d44b6cadf8784a5bef2477.16",
      "lat": 22.556072,
      "lng": 88.358839,
      "name": "Pentecostal Church"
    },
    "19f23e9b559e434792ae124c5ee85fec.16": {
      "guid": "19f23e9b559e434792ae124c5ee85fec.16",
      "lat": 22.831977,
      "lng": 88.390512,
      "name": "Swami Vivekananda Mural"
    },
    "19fc8218c55d44989cbedf411798b471.16": {
      "guid": "19fc8218c55d44989cbedf411798b471.16",
      "lat": 22.693394,
      "lng": 88.464682,
      "name": "Ramakrishna Vivekananda Sebashram"
    },
    "1b6912dcc824458bac04f637ff45dff7.16": {
      "guid": "1b6912dcc824458bac04f637ff45dff7.16",
      "lat": 22.664134,
      "lng": 88.402385,
      "name": "Shiv and Shani Mandir"
    },
    "1b8ff4ff192046e3879e1db157df99b2.16": {
      "guid": "1b8ff4ff192046e3879e1db157df99b2.16",
      "lat": 22.567703,
      "lng": 88.392305,
      "name": "Children's Park Phoolbagan"
    },
    "1b970d9999a34c38bc8ec5a0abea3557.16": {
      "guid": "1b970d9999a34c38bc8ec5a0abea3557.16",
      "lat": 22.474992,
      "lng": 88.366412,
      "name": "Shani Temple"
    },
    "1b9782e8a0254c4fbeb9cb74b1983734.16": {
      "guid": "1b9782e8a0254c4fbeb9cb74b1983734.16",
      "lat": 22.466925,
      "lng": 88.369092,
      "name": "Bidhanpally Sitala Temple "
    },
    "1b9c722e361945b284462aaa86687736.16": {
      "guid": "1b9c722e361945b284462aaa86687736.16",
      "lat": 22.703149,
      "lng": 88.345038,
      "name": "Hanuman Temple"
    },
    "1ba77e5a2db9455aa99e4b1b341cd735.16": {
      "guid": "1ba77e5a2db9455aa99e4b1b341cd735.16",
      "lat": 22.70571,
      "lng": 88.358057,
      "name": "Kali Mata Temple"
    },
    "1bf6f2dcb6a3490888ee405255dc4eb2.16": {
      "guid": "1bf6f2dcb6a3490888ee405255dc4eb2.16",
      "lat": 22.549201,
      "lng": 88.348446,
      "name": "Mortar Near Maidan Metro"
    },
    "1c2b1ad364114714895cd9a28e04d603.16": {
      "guid": "1c2b1ad364114714895cd9a28e04d603.16",
      "isEx": true,
      "lat": 22.591976,
      "lng": 88.403327,
      "name": "Kolkakoli Park Entrance "
    },
    "1c5f79d0cf4c4ba4bf2b952a1e2b7abd.16": {
      "guid": "1c5f79d0cf4c4ba4bf2b952a1e2b7abd.16",
      "lat": 22.591309,
      "lng": 88.39309,
      "name": "The Chinese Lady Statue"
    },
    "1c81a4acd5774687a89ff401147ee19d.12": {
      "guid": "1c81a4acd5774687a89ff401147ee19d.12",
      "lat": 22.589208,
      "lng": 88.419545,
      "name": "Bidhan Chandra Roy"
    },
    "1cd4fe31d7af44aeba46cf4ad8d47de8.16": {
      "guid": "1cd4fe31d7af44aeba46cf4ad8d47de8.16",
      "lat": 22.547713,
      "lng": 88.362167,
      "name": "L.C.Rd Cemetary "
    },
    "1cda2951e27c4c248efcd11373b7396a.16": {
      "guid": "1cda2951e27c4c248efcd11373b7396a.16",
      "lat": 22.600079,
      "lng": 88.364416,
      "name": "Kali mandir "
    },
    "1d02ac3d1f954d56ad43c9b25a28eab6.16": {
      "guid": "1d02ac3d1f954d56ad43c9b25a28eab6.16",
      "lat": 22.657745,
      "lng": 88.41192,
      "name": "Bust Of Dr. B.R. Ambedkar"
    },
    "1d31e4e3c0134d019e2eaa2754eb09d8.16": {
      "guid": "1d31e4e3c0134d019e2eaa2754eb09d8.16",
      "isEx": true,
      "lat": 22.546857,
      "lng": 88.347467,
      "name": "ITC Park Graffiti"
    },
    "1d4e2ee947014f78bc753177f83bb712.16": {
      "guid": "1d4e2ee947014f78bc753177f83bb712.16",
      "lat": 22.473367,
      "lng": 88.388768,
      "name": "Fountain Lights"
    },
    "1df4b4b4ac5f4c358555f62545ef2f47.16": {
      "guid": "1df4b4b4ac5f4c358555f62545ef2f47.16",
      "lat": 22.831442,
      "lng": 88.393504,
      "name": "Netaji Subhas Chandra Bose Mural"
    },
    "1e00c08903af405fb0ada4efabcc3d85.16": {
      "guid": "1e00c08903af405fb0ada4efabcc3d85.16",
      "lat": 22.661685,
      "lng": 88.411495,
      "name": "Fakir Para Mosque"
    },
    "1e09cb9ccf7b46fe8566cf890ca6b8ce.16": {
      "guid": "1e09cb9ccf7b46fe8566cf890ca6b8ce.16",
      "lat": 22.680125,
      "lng": 88.453806,
      "name": "Small Roadside Temple "
    },
    "1e5628dd60614a86b478f11f1230796b.16": {
      "guid": "1e5628dd60614a86b478f11f1230796b.16",
      "lat": 22.460435,
      "lng": 88.407204,
      "name": "Wall Paintings"
    },
    "1e5b1c049e76498b82107f5e10dc7949.16": {
      "guid": "1e5b1c049e76498b82107f5e10dc7949.16",
      "lat": 22.698185,
      "lng": 88.252104,
      "name": "Shiva Temple "
    },
    "1ed106a1bd714d17ad4a2af6c7ec4657.16": {
      "guid": "1ed106a1bd714d17ad4a2af6c7ec4657.16",
      "lat": 22.503591,
      "lng": 88.303918,
      "name": "Shiv Temple"
    },
    "1f1141caa5034ab296cb83cddaa5053f.16": {
      "guid": "1f1141caa5034ab296cb83cddaa5053f.16",
      "lat": 22.529649,
      "lng": 88.25083,
      "name": "Notun Pole Tara Maa Mandir Entrance"
    },
    "1fb8fd70456d4726bffbae86ee2b5deb.16": {
      "guid": "1fb8fd70456d4726bffbae86ee2b5deb.16",
      "lat": 22.50528,
      "lng": 88.340413,
      "name": "Shiv Temple"
    },
    "2000ebf92c7b41948852f58e2d82c60b.16": {
      "guid": "2000ebf92c7b41948852f58e2d82c60b.16",
      "lat": 22.475035,
      "lng": 88.376623,
      "name": "Saturn's Temple"
    },
    "201651418a194520b517c21131eb4736.16": {
      "guid": "201651418a194520b517c21131eb4736.16",
      "lat": 22.621473,
      "lng": 88.392684,
      "name": "Dumdum Station Platform 4"
    },
    "208d046e4979485a94890bca73eed281.16": {
      "guid": "208d046e4979485a94890bca73eed281.16",
      "lat": 22.557284,
      "lng": 88.300726,
      "name": "Kali Mandir Near Botanical Garden"
    },
    "20925363a17a44b98b49d0dce07abd74.16": {
      "guid": "20925363a17a44b98b49d0dce07abd74.16",
      "lat": 22.710542,
      "lng": 88.469605,
      "name": "Hridaypur Railway Station "
    },
    "20b96fc2dd734ac9a06fdbd15d9c6a39.16": {
      "guid": "20b96fc2dd734ac9a06fdbd15d9c6a39.16",
      "lat": 22.577123,
      "lng": 88.285865,
      "name": "Anukul Satsang Kendra"
    },
    "20d1c96846624a4ab912daca7bca1701.16": {
      "guid": "20d1c96846624a4ab912daca7bca1701.16",
      "lat": 22.692162,
      "lng": 88.472898,
      "name": "Shiva Temple "
    },
    "2194b25522264d7c8e201d4754bfb804.16": {
      "guid": "2194b25522264d7c8e201d4754bfb804.16",
      "lat": 22.621259,
      "lng": 88.402549,
      "name": "Dumdum Hanuman Mandir"
    },
    "21aa0bb29206467a9f415b5ecc99d87a.11": {
      "guid": "21aa0bb29206467a9f415b5ecc99d87a.11",
      "lat": 22.587829,
      "lng": 88.408424,
      "name": "City Center, Salt Lake"
    },
    "21cd65155d8449a3b4b944ac0df45ef7.16": {
      "guid": "21cd65155d8449a3b4b944ac0df45ef7.16",
      "lat": 22.562517,
      "lng": 88.39843,
      "name": "Salil Choudhury"
    },
    "21d5c68129904aedbaa24b1335b67264.16": {
      "guid": "21d5c68129904aedbaa24b1335b67264.16",
      "lat": 22.537488,
      "lng": 88.334182,
      "name": "Like a Rickshaw "
    },
    "22a25367cfd04856b122014cb59038e0.16": {
      "guid": "22a25367cfd04856b122014cb59038e0.16",
      "lat": 22.857045,
      "lng": 88.369936,
      "name": "Chandannagar Strand"
    },
    "22d8b7c29b994c78a55131500ee18b29.16": {
      "guid": "22d8b7c29b994c78a55131500ee18b29.16",
      "lat": 22.61154,
      "lng": 88.399693,
      "name": "Kalindi Main Playground"
    },
    "230e51f29f5b4c28a728819b0d72c0ce.16": {
      "guid": "230e51f29f5b4c28a728819b0d72c0ce.16",
      "lat": 22.560841,
      "lng": 88.209041,
      "name": "Road Art No.1 At Sankrail Station"
    },
    "236ed729c7a64862b217737b7064e5e6.16": {
      "guid": "236ed729c7a64862b217737b7064e5e6.16",
      "lat": 22.666011,
      "lng": 88.345769,
      "name": "Ram mandir at B.K.Street"
    },
    "238852495444425fb52bba8453389b85.16": {
      "guid": "238852495444425fb52bba8453389b85.16",
      "lat": 22.6823,
      "lng": 88.423447,
      "name": "Wall paint at Young Generation Sporting Club"
    },
    "240db84ccb8d403cb8a0b806cdb2a78c.16": {
      "guid": "240db84ccb8d403cb8a0b806cdb2a78c.16",
      "lat": 22.920754,
      "lng": 88.436781,
      "name": "Mural at Halisahar Railway Station"
    },
    "24752925eac5488db688c8cd2b577b55.16": {
      "guid": "24752925eac5488db688c8cd2b577b55.16",
      "lat": 22.47083,
      "lng": 88.381989,
      "name": "DipuBapuli Children park"
    },
    "247ab5b2928c4773aa5d2cbd106f253c.16": {
      "guid": "247ab5b2928c4773aa5d2cbd106f253c.16",
      "lat": 22.65485,
      "lng": 88.357518,
      "name": "Dakhsineswar Kali Temple"
    },
    "2483eeef6fbe405c9986285c118b9fa3.16": {
      "guid": "2483eeef6fbe405c9986285c118b9fa3.16",
      "lat": 22.469942,
      "lng": 88.372297,
      "name": "Neel Moni Smriti Mandir"
    },
    "24c68671ec8d4d67ab8331576fda96f9.16": {
      "guid": "24c68671ec8d4d67ab8331576fda96f9.16",
      "lat": 22.573549,
      "lng": 88.385284,
      "name": "Sir Gurudas Banerjee Halt"
    },
    "259ddcdc7b37418296d928e701260853.16": {
      "guid": "259ddcdc7b37418296d928e701260853.16",
      "lat": 22.928874,
      "lng": 88.44178,
      "name": "Itkhola Shitala Mandir"
    },
    "25c460442ea844899a0496a98ab25819.16": {
      "guid": "25c460442ea844899a0496a98ab25819.16",
      "lat": 22.845702,
      "lng": 88.346832,
      "name": "Mankundu Station"
    },
    "25e0538a3dec4569a9b206f5a9c561c0.16": {
      "guid": "25e0538a3dec4569a9b206f5a9c561c0.16",
      "lat": 22.471226,
      "lng": 88.34409,
      "name": "MEMORIAL OF B. CHAKROTBORTY"
    },
    "25f630294fc04b40a503df9e7300e687.16": {
      "guid": "25f630294fc04b40a503df9e7300e687.16",
      "lat": 22.59607,
      "lng": 88.424457,
      "name": "Tank No 7"
    },
    "263ade0e964045da9167e2f4790e2aff.16": {
      "guid": "263ade0e964045da9167e2f4790e2aff.16",
      "lat": 22.443095,
      "lng": 88.417615,
      "name": "Radha Gobindo Mandir"
    },
    "2662dc3141a642f3b7f531aed9e00e83.16": {
      "guid": "2662dc3141a642f3b7f531aed9e00e83.16",
      "lat": 22.625855,
      "lng": 88.416115,
      "name": "Dum Dum Children's Park"
    },
    "2695ca052c3142ce9f2adc4d48fb20b0.16": {
      "guid": "2695ca052c3142ce9f2adc4d48fb20b0.16",
      "lat": 22.686724,
      "lng": 88.472415,
      "name": "Goddess Kali Temple "
    },
    "26bf9d707efd4f26b166acdcdc671e22.16": {
      "guid": "26bf9d707efd4f26b166acdcdc671e22.16",
      "lat": 22.541204,
      "lng": 88.326248,
      "name": "Netaji Statue"
    },
    "26ed081d8a6949288ec131598ae36a76.16": {
      "guid": "26ed081d8a6949288ec131598ae36a76.16",
      "lat": 22.503256,
      "lng": 88.222192,
      "name": "RadhaGovinda Temple"
    },
    "27276cf254fd4391a2799dc68f4fd684.16": {
      "guid": "27276cf254fd4391a2799dc68f4fd684.16",
      "lat": 22.513572,
      "lng": 88.393143,
      "name": "Bust of Kishore Kumar"
    },
    "275c1143ccee416597259ac0aae81cca.16": {
      "guid": "275c1143ccee416597259ac0aae81cca.16",
      "lat": 22.6857,
      "lng": 88.446052,
      "name": "War Memorial"
    },
    "276d27d9e1f640248bf6eaf3256c8c47.16": {
      "guid": "276d27d9e1f640248bf6eaf3256c8c47.16",
      "lat": 22.711435,
      "lng": 88.469885,
      "name": "Shani and Kali Temple "
    },
    "277c6b22a4a84fe89fc7779e29c454ad.16": {
      "guid": "277c6b22a4a84fe89fc7779e29c454ad.16",
      "lat": 22.463851,
      "lng": 88.379808,
      "name": "Statue Of Bidrohi Kavi Nazrul Islam"
    },
    "279962c307294b20bd93fd51549e927e.16": {
      "guid": "279962c307294b20bd93fd51549e927e.16",
      "isEx": true,
      "lat": 22.883575,
      "lng": 88.40038,
      "name": "Hooghly Mohsin College"
    },
    "27a30f67642b48e5b67d3bbdbd3a523d.16": {
      "guid": "27a30f67642b48e5b67d3bbdbd3a523d.16",
      "lat": 22.86684,
      "lng": 88.405586,
      "name": "Mural at Kankinara Railway Station"
    },
    "2867fa7f95a14451a72c893e5f5d87b3.16": {
      "guid": "2867fa7f95a14451a72c893e5f5d87b3.16",
      "lat": 22.595551,
      "lng": 88.37849,
      "name": "Gachtala Shiv Mandir"
    },
    "2871b1a48a604ce09b68f0d73b3b8102.16": {
      "guid": "2871b1a48a604ce09b68f0d73b3b8102.16",
      "lat": 22.503238,
      "lng": 88.344884,
      "name": "Bust of Indira Gandhi"
    },
    "287d8f900a384831a8a9e729bedad9c4.16": {
      "guid": "287d8f900a384831a8a9e729bedad9c4.16",
      "lat": 22.579875,
      "lng": 88.36993,
      "name": "Amanda Mohan College 1961"
    },
    "28fa460ab0d6469591371f6eff88713d.16": {
      "guid": "28fa460ab0d6469591371f6eff88713d.16",
      "lat": 22.621907,
      "lng": 88.429835,
      "name": "Shatyam shiva mandir"
    },
    "29c12bc249ef4be2805c88a47c9ee7fb.16": {
      "guid": "29c12bc249ef4be2805c88a47c9ee7fb.16",
      "lat": 22.539077,
      "lng": 88.386487,
      "name": "Shiv And Kali Temple"
    },
    "29f9b99ce8b745c89e3605a4e9357513.16": {
      "guid": "29f9b99ce8b745c89e3605a4e9357513.16",
      "lat": 22.596999,
      "lng": 88.36514,
      "name": "Lal Baba Mandir"
    },
    "2a5695fe6b0243e28e3fb68b9452be18.16": {
      "guid": "2a5695fe6b0243e28e3fb68b9452be18.16",
      "lat": 22.542144,
      "lng": 88.367988,
      "name": "Ruqaiya Park "
    },
    "2a83779f178b45dba1fa9f48b8feb3e8.16": {
      "guid": "2a83779f178b45dba1fa9f48b8feb3e8.16",
      "isEx": true,
      "lat": 22.572722,
      "lng": 88.34455,
      "name": "Entry To Millennium Park"
    },
    "2ab88ec1bc7741af87a7380529ce7556.16": {
      "guid": "2ab88ec1bc7741af87a7380529ce7556.16",
      "lat": 22.489018,
      "lng": 88.343454,
      "name": "Swami Pranabananda Ji Maharaj Satue "
    },
    "2ad7dbc68de3484aae115f2dbac96aa4.16": {
      "guid": "2ad7dbc68de3484aae115f2dbac96aa4.16",
      "lat": 22.562611,
      "lng": 88.464472,
      "name": "Aquatica Water Theme Park"
    },
    "2b43830ed8264783a35b67e349ef6adb.16": {
      "guid": "2b43830ed8264783a35b67e349ef6adb.16",
      "lat": 22.726797,
      "lng": 88.381981,
      "name": "Kali Temple"
    },
    "2b491e2456434c6ca673ff73a3be0a08.16": {
      "guid": "2b491e2456434c6ca673ff73a3be0a08.16",
      "lat": 22.913844,
      "lng": 88.444694,
      "name": "Dighirpar Kali Temple"
    },
    "2b92e4b395f84f1f894f97dff6002012.16": {
      "guid": "2b92e4b395f84f1f894f97dff6002012.16",
      "lat": 22.525921,
      "lng": 88.31681,
      "name": "Remount Road Railway Station"
    },
    "2baf973091a0427fa90c5593f3f18099.16": {
      "guid": "2baf973091a0427fa90c5593f3f18099.16",
      "lat": 22.582718,
      "lng": 88.317731,
      "name": "Shree Shree Dashamahavidya Temple"
    },
    "2bb53fe5464b472dae9eda8c835c03f7.16": {
      "guid": "2bb53fe5464b472dae9eda8c835c03f7.16",
      "lat": 22.795583,
      "lng": 88.331932,
      "name": "Baidyabati Station"
    },
    "2be087f25ced46978e29cb7222c069ff.16": {
      "guid": "2be087f25ced46978e29cb7222c069ff.16",
      "lat": 22.559421,
      "lng": 88.287393,
      "name": "Gazebo Near The Great Banyan Tree"
    },
    "2c0072ce34b24a89a3c6728dbd54b64a.16": {
      "guid": "2c0072ce34b24a89a3c6728dbd54b64a.16",
      "lat": 22.513017,
      "lng": 88.322984,
      "name": "A Street Side Shrine to Lord Shiva"
    },
    "2c1252058435495ea63316f61ff5643b.16": {
      "guid": "2c1252058435495ea63316f61ff5643b.16",
      "lat": 22.510507,
      "lng": 88.37136,
      "name": "Dhakuria Public Library"
    },
    "2c18b6dad82a425fbca13124cedeb3b3.16": {
      "guid": "2c18b6dad82a425fbca13124cedeb3b3.16",
      "lat": 22.489069,
      "lng": 88.36258,
      "name": "Bijoygarh Thakur Bari"
    },
    "2cd8ff76126d47d58caa98c3cee23a5c.16": {
      "guid": "2cd8ff76126d47d58caa98c3cee23a5c.16",
      "lat": 22.777189,
      "lng": 88.534998,
      "name": "Roadside Kali & Shani Temple"
    },
    "2cf4409f47e341ed831f43ae4e7329c2.16": {
      "guid": "2cf4409f47e341ed831f43ae4e7329c2.16",
      "lat": 22.49486,
      "lng": 88.36595,
      "name": "Sri Sri Kaibalya Dham"
    },
    "2df8034b909a4d9d9de815db022d4f45.16": {
      "guid": "2df8034b909a4d9d9de815db022d4f45.16",
      "lat": 22.726206,
      "lng": 88.343408,
      "name": "রিষড়া রেলওয়ে স্টেশন।"
    },
    "2e33f97baf454d65b092ff96d242e105.16": {
      "guid": "2e33f97baf454d65b092ff96d242e105.16",
      "lat": 22.483015,
      "lng": 88.376827,
      "name": "বিবেকানন্দ মিলন সংঘ"
    },
    "2e7e3b7b4f7144d8823d8d56e326bdd7.16": {
      "guid": "2e7e3b7b4f7144d8823d8d56e326bdd7.16",
      "lat": 22.503906,
      "lng": 88.372672,
      "name": "Masjid E Alam"
    },
    "2ef1858c650c4255b82873dadf6bf105.16": {
      "guid": "2ef1858c650c4255b82873dadf6bf105.16",
      "lat": 22.615537,
      "lng": 88.432269,
      "name": "marvel statue of Swami Vivekananda"
    },
    "2f757ad559f24c598861784d197f74fc.16": {
      "guid": "2f757ad559f24c598861784d197f74fc.16",
      "lat": 22.885499,
      "lng": 88.419233,
      "name": "Naihati Anandabazar Post Office"
    },
    "2fbda7ef89fd4f7d9d2afb9aa3149a6a.16": {
      "guid": "2fbda7ef89fd4f7d9d2afb9aa3149a6a.16",
      "lat": 22.582628,
      "lng": 88.314057,
      "name": "Kid's Slide at Bhogini Nibedita Shishu Udyan"
    },
    "306f032eeb2e468fa310058b118f0abf.16": {
      "guid": "306f032eeb2e468fa310058b118f0abf.16",
      "lat": 22.528213,
      "lng": 88.347395,
      "name": "Satya Ranjan Bakshi Smriti Uddyan"
    },
    "3087354fefdf4fbaa4f96af4bba47cd4.16": {
      "guid": "3087354fefdf4fbaa4f96af4bba47cd4.16",
      "lat": 22.513085,
      "lng": 88.34611,
      "name": "Shib tara mandir"
    },
    "30b9e311040d494ea2d7a118ac60805d.16": {
      "guid": "30b9e311040d494ea2d7a118ac60805d.16",
      "lat": 22.585433,
      "lng": 88.372171,
      "name": "Hanuman Mandir"
    },
    "30bb98b6494f4f3493bba34d6b8faf9a.16": {
      "guid": "30bb98b6494f4f3493bba34d6b8faf9a.16",
      "lat": 22.366985,
      "lng": 88.42821,
      "name": "Bishalakkhi Mandir, Baruipur"
    },
    "30bdf5a36929427dbd583b27951c20a7.16": {
      "guid": "30bdf5a36929427dbd583b27951c20a7.16",
      "lat": 22.556605,
      "lng": 88.307809,
      "name": "Statue Of R N Tagore"
    },
    "30e21dd282b140fe9789180a1e8fd1c4.16": {
      "guid": "30e21dd282b140fe9789180a1e8fd1c4.16",
      "lat": 22.462357,
      "lng": 88.394827,
      "name": "Shree Shree Barobaba Kaalimata Mandir"
    },
    "30e4c4d657154b27b09abd8516da9416.16": {
      "guid": "30e4c4d657154b27b09abd8516da9416.16",
      "lat": 22.499229,
      "lng": 88.320154,
      "name": "Sitala Mandir"
    },
    "31567f569dbb4d99854b8c3bd44b182d.16": {
      "guid": "31567f569dbb4d99854b8c3bd44b182d.16",
      "lat": 22.641824,
      "lng": 88.439376,
      "name": "3D Durga"
    },
    "31e638fac71d4eb5a4c265782ae129cf.16": {
      "guid": "31e638fac71d4eb5a4c265782ae129cf.16",
      "lat": 22.516697,
      "lng": 88.303309,
      "name": "Statute of Chief Minister Joyti Basu"
    },
    "32d195c208754424a5fcc10b538db5ea.16": {
      "guid": "32d195c208754424a5fcc10b538db5ea.16",
      "lat": 22.564061,
      "lng": 88.320665,
      "name": "Swami Vivekananda Statue"
    },
    "330e616b4f1e488589e7ba2df57e9361.16": {
      "guid": "330e616b4f1e488589e7ba2df57e9361.16",
      "lat": 22.892362,
      "lng": 88.417053,
      "name": "Temple of Lord Shiva"
    },
    "33c0ab51e7f8462baa82ec6f5594eed1.16": {
      "guid": "33c0ab51e7f8462baa82ec6f5594eed1.16",
      "lat": 22.600912,
      "lng": 88.370622,
      "name": "Statute "
    },
    "33ced15c0c37486087c568352a0b68af.16": {
      "guid": "33ced15c0c37486087c568352a0b68af.16",
      "lat": 22.589976,
      "lng": 88.397331,
      "name": "Sishu Tirtha Park Entrance "
    },
    "33e4aecd6fe541ad9fcf557f2e3cd173.16": {
      "guid": "33e4aecd6fe541ad9fcf557f2e3cd173.16",
      "lat": 22.587995,
      "lng": 88.285621,
      "name": "Bust Of Netaji Subash Chandra Bose"
    },
    "34a66b5e99214dd5ab0757514b21971b.16": {
      "guid": "34a66b5e99214dd5ab0757514b21971b.16",
      "lat": 22.943436,
      "lng": 88.460548,
      "name": "jonepur water tank"
    },
    "34d4fd9ef8de4d6cab4547fae5f41a35.16": {
      "guid": "34d4fd9ef8de4d6cab4547fae5f41a35.16",
      "lat": 22.723964,
      "lng": 88.384233,
      "name": "Kali And Shiv Temple"
    },
    "35108e15370f453198c4a8158d9ca4b4.16": {
      "guid": "35108e15370f453198c4a8158d9ca4b4.16",
      "lat": 22.886809,
      "lng": 88.399427,
      "name": "Kali mandir  besides court"
    },
    "36311aaa7ed44a07ad5422340445b63c.16": {
      "guid": "36311aaa7ed44a07ad5422340445b63c.16",
      "lat": 22.931589,
      "lng": 88.443237,
      "name": "Itkhola Saani Mandir"
    },
    "36ed287f54f14590b0dfe465703a4692.16": {
      "guid": "36ed287f54f14590b0dfe465703a4692.16",
      "lat": 22.888605,
      "lng": 88.401989,
      "name": "Shiv mandir near post office"
    },
    "384f20702d7444a1ba0bda84c2cb5ec5.16": {
      "guid": "384f20702d7444a1ba0bda84c2cb5ec5.16",
      "isEx": true,
      "lat": 22.512135,
      "lng": 88.359839,
      "name": "AMRI Victim Statue"
    },
    "384fff36104e40228fb94265b35add9c.16": {
      "guid": "384fff36104e40228fb94265b35add9c.16",
      "lat": 22.704936,
      "lng": 88.466743,
      "name": "Udayrajpur Sishu Uddyan"
    },
    "3851a213111e4597bb48138845e5e1bc.16": {
      "guid": "3851a213111e4597bb48138845e5e1bc.16",
      "isEx": true,
      "lat": 22.602662,
      "lng": 88.468488,
      "name": "The Sitafal Bin"
    },
    "38a5fd81aa8142a58eca76fb1947f023.16": {
      "guid": "38a5fd81aa8142a58eca76fb1947f023.16",
      "lat": 22.632749,
      "lng": 88.414534,
      "name": "Brahmasthan Hanuman Mandir"
    },
    "38ba8dfcf4d6417eb11f1b9f684a5384.16": {
      "guid": "38ba8dfcf4d6417eb11f1b9f684a5384.16",
      "lat": 22.587874,
      "lng": 88.301479,
      "name": "Ancient Ram Mandir"
    },
    "38c1526a94df40f6bce3021ae9a8374d.16": {
      "guid": "38c1526a94df40f6bce3021ae9a8374d.16",
      "lat": 22.626893,
      "lng": 88.401372,
      "name": "Purba Sinthee Ramkrishna Sangha"
    },
    "38ebe1dd2b744a6693570856b0e899da.16": {
      "guid": "38ebe1dd2b744a6693570856b0e899da.16",
      "lat": 22.582584,
      "lng": 88.42383,
      "name": "Krishna Mandir"
    },
    "3902aa7c90594442b03b44d99eee4abb.16": {
      "guid": "3902aa7c90594442b03b44d99eee4abb.16",
      "lat": 22.502489,
      "lng": 88.384146,
      "name": "Bust Of Dulal Das Thakur "
    },
    "3917b1dcb58546c993c63de001fe685f.16": {
      "guid": "3917b1dcb58546c993c63de001fe685f.16",
      "lat": 22.601362,
      "lng": 88.383555,
      "name": "Kolkata Railway"
    },
    "3962ac3b18124f8897d6e5327a8e3cab.16": {
      "guid": "3962ac3b18124f8897d6e5327a8e3cab.16",
      "lat": 22.552804,
      "lng": 88.352532,
      "name": "Flurys"
    },
    "3999cc63fd7441b2a6a50ce876cf0452.16": {
      "guid": "3999cc63fd7441b2a6a50ce876cf0452.16",
      "lat": 22.439878,
      "lng": 88.425834,
      "name": "Pragati Sangha Sporting Club And Library"
    },
    "3a0e6f76dc374a7d9cc7bdd0f0664f6a.16": {
      "guid": "3a0e6f76dc374a7d9cc7bdd0f0664f6a.16",
      "lat": 22.46578,
      "lng": 88.376506,
      "name": "Shani temple"
    },
    "3a51766f33074cd2ad2c819a68785124.16": {
      "guid": "3a51766f33074cd2ad2c819a68785124.16",
      "lat": 22.692651,
      "lng": 88.45674,
      "name": "Vidyasagar Vidyapith"
    },
    "3b164423c4fa4efdaef3a90d24ae915e.16": {
      "guid": "3b164423c4fa4efdaef3a90d24ae915e.16",
      "lat": 22.679264,
      "lng": 88.449153,
      "name": "3 Men"
    },
    "3b1c81c2f97e46fca40164f166ece60b.16": {
      "guid": "3b1c81c2f97e46fca40164f166ece60b.16",
      "lat": 22.589555,
      "lng": 88.298301,
      "name": "Katyani Mandir"
    },
    "3b9255546515426d83217b00adced30a.16": {
      "guid": "3b9255546515426d83217b00adced30a.16",
      "lat": 22.923706,
      "lng": 88.378026,
      "name": "Bandel Railway Junction"
    },
    "3c3f3d6db7f040be97997cfdb0f03557.16": {
      "guid": "3c3f3d6db7f040be97997cfdb0f03557.16",
      "isEx": true,
      "lat": 22.5888,
      "lng": 88.368794,
      "name": "Botto Krisno Pol"
    },
    "3d0ee6bad2e041fb819a85aefca2b61a.16": {
      "guid": "3d0ee6bad2e041fb819a85aefca2b61a.16",
      "isEx": true,
      "lat": 22.607428,
      "lng": 88.467249,
      "name": "Masks Of Countries"
    },
    "3d1911b3dcd3415c921b042d45cf30f4.16": {
      "guid": "3d1911b3dcd3415c921b042d45cf30f4.16",
      "isEx": true,
      "lat": 22.509999,
      "lng": 88.359169,
      "name": "Glass Tower Of The Sarovar"
    },
    "3dba0c94cd094e1fb0edfd1e0764ec22.16": {
      "guid": "3dba0c94cd094e1fb0edfd1e0764ec22.16",
      "lat": 22.566805,
      "lng": 88.401719,
      "name": "Children Playing Mural"
    },
    "3de0676d30fb42c595a1dcf3282ac5d8.16": {
      "guid": "3de0676d30fb42c595a1dcf3282ac5d8.16",
      "lat": 22.594395,
      "lng": 88.413314,
      "name": "The Gorilla"
    },
    "3e044c237a514efd802111f16fe7fba2.16": {
      "guid": "3e044c237a514efd802111f16fe7fba2.16",
      "lat": 22.585493,
      "lng": 88.373674,
      "name": "Hanuman And Radha Mandir"
    },
    "3ead7b6d000445bbb2a3b3721f0ecf17.16": {
      "guid": "3ead7b6d000445bbb2a3b3721f0ecf17.16",
      "lat": 22.883489,
      "lng": 88.415058,
      "name": "Bipad Baba Temple"
    },
    "3f2adfe2811a47d9aa7979e0b5e2d875.16": {
      "guid": "3f2adfe2811a47d9aa7979e0b5e2d875.16",
      "lat": 22.59115,
      "lng": 88.372673,
      "name": "Goabagan CIT Park Entrance"
    },
    "3f38b9512cd344a38482728685d51a8d.16": {
      "guid": "3f38b9512cd344a38482728685d51a8d.16",
      "lat": 22.481043,
      "lng": 88.333731,
      "name": "Manosha Mata Mandir"
    },
    "3f50e034bf8c4e378532926536cc236a.16": {
      "guid": "3f50e034bf8c4e378532926536cc236a.16",
      "lat": 22.463824,
      "lng": 88.386721,
      "name": "Satyananda Shakti Bad Math"
    },
    "3f822d0d3bcc4add8767d6c90c08fb50.16": {
      "guid": "3f822d0d3bcc4add8767d6c90c08fb50.16",
      "lat": 22.846987,
      "lng": 88.37902,
      "name": "Neogi Para Shiv Temple "
    },
    "401cab1722554d078c11e4d999ffeef7.16": {
      "guid": "401cab1722554d078c11e4d999ffeef7.16",
      "lat": 22.442713,
      "lng": 88.430704,
      "name": "Cultural Wall Art At Sonarpur "
    },
    "40d1567298d14c3caf0be84bb5b821e0.16": {
      "guid": "40d1567298d14c3caf0be84bb5b821e0.16",
      "lat": 22.635901,
      "lng": 88.41181,
      "name": "Dumdum Cant Station"
    },
    "41b6525399e3465a92036d64ccf542a6.16": {
      "guid": "41b6525399e3465a92036d64ccf542a6.16",
      "lat": 22.551197,
      "lng": 88.363006,
      "name": "Baptist Chapel"
    },
    "41fba91a917b4539a72ee0c571736d63.16": {
      "guid": "41fba91a917b4539a72ee0c571736d63.16",
      "lat": 22.885281,
      "lng": 88.391171,
      "name": "Gaji Saheber Dorga Sharif"
    },
    "4318ae83ed424c838542af7ad9c8e99a.16": {
      "guid": "4318ae83ed424c838542af7ad9c8e99a.16",
      "isEx": true,
      "lat": 22.555337,
      "lng": 88.33116,
      "name": "James Princep Memorial"
    },
    "433ec442d8a2468a83e158c375f13d20.16": {
      "guid": "433ec442d8a2468a83e158c375f13d20.16",
      "lat": 22.56186,
      "lng": 88.417262,
      "name": "Shiv Parvati Temple"
    },
    "4355b8aac2dc4a098ca5a00243849a6e.16": {
      "guid": "4355b8aac2dc4a098ca5a00243849a6e.16",
      "lat": 22.563643,
      "lng": 88.338596,
      "name": "Statue of Bankim Chandra Chatterjee"
    },
    "435e8b0ca9b84008a5190cc55bbf39c7.16": {
      "guid": "435e8b0ca9b84008a5190cc55bbf39c7.16",
      "lat": 22.576605,
      "lng": 88.430257,
      "name": "Triangular Pillar"
    },
    "438bbccb7ae749cd8b7d74eac8b5c9d7.16": {
      "guid": "438bbccb7ae749cd8b7d74eac8b5c9d7.16",
      "isEx": true,
      "lat": 22.512499,
      "lng": 88.360081,
      "name": "Mumuksha Statue"
    },
    "43be13eecb934ddc9b96653bc0874894.16": {
      "guid": "43be13eecb934ddc9b96653bc0874894.16",
      "lat": 22.490427,
      "lng": 88.40578,
      "name": "Mukundapur Radhakrishna Mandir "
    },
    "43d1bbb7e8fc4adabd3d681b4bdabe07.16": {
      "guid": "43d1bbb7e8fc4adabd3d681b4bdabe07.16",
      "lat": 22.483003,
      "lng": 88.3782,
      "name": "Ramthakur Ashram"
    },
    "44c67bd7814146ebbde4b3c867181ddb.16": {
      "guid": "44c67bd7814146ebbde4b3c867181ddb.16",
      "lat": 22.887071,
      "lng": 88.40301,
      "name": "Shiv mandir near ganga river"
    },
    "451ea55a92854d7e84b5a232a805aebd.16": {
      "guid": "451ea55a92854d7e84b5a232a805aebd.16",
      "lat": 22.719554,
      "lng": 88.485013,
      "name": "Boro Kali Mandir"
    },
    "4560737ddccb458da98bbc404e954797.16": {
      "guid": "4560737ddccb458da98bbc404e954797.16",
      "lat": 22.611406,
      "lng": 88.407271,
      "name": "Chinese Budhist Temple"
    },
    "4577fa25c70e4605ab64278f8d2066e9.16": {
      "guid": "4577fa25c70e4605ab64278f8d2066e9.16",
      "lat": 22.518572,
      "lng": 88.358599,
      "name": "Shani Temple at Desopriya Park"
    },
    "4580ec9ba41f474dbd88967a5073f2f1.16": {
      "guid": "4580ec9ba41f474dbd88967a5073f2f1.16",
      "lat": 22.571852,
      "lng": 88.372837,
      "name": "Hero Horse"
    },
    "45ce4c2baf934aadb810fa3aa6c3156a.16": {
      "guid": "45ce4c2baf934aadb810fa3aa6c3156a.16",
      "lat": 22.622252,
      "lng": 88.407742,
      "name": "Borah Thakurer Mandir"
    },
    "4668be0d40324f21b8c1d97fe7611084.16": {
      "guid": "4668be0d40324f21b8c1d97fe7611084.16",
      "lat": 22.620509,
      "lng": 88.397037,
      "name": "Sri Sri Shiva Mandir"
    },
    "473884c242f942549b57b40f94ba1549.16": {
      "guid": "473884c242f942549b57b40f94ba1549.16",
      "lat": 22.6098,
      "lng": 88.432845,
      "name": "Bust Of Vivekananda"
    },
    "4785038232454539af378e62e5001a06.16": {
      "guid": "4785038232454539af378e62e5001a06.16",
      "lat": 22.506904,
      "lng": 88.34558,
      "name": "Shiv Temple"
    },
    "47a49bbf57b24bb994130309062e43ae.16": {
      "guid": "47a49bbf57b24bb994130309062e43ae.16",
      "lat": 22.922196,
      "lng": 88.43247,
      "name": "Sankar Swarup Yogmoth "
    },
    "47b5a68ad1e443f98ad99be700e3a7b3.16": {
      "guid": "47b5a68ad1e443f98ad99be700e3a7b3.16",
      "lat": 22.491315,
      "lng": 88.372497,
      "name": "Bust Of Sukanta Bhattacharya"
    },
    "483e35811bfa44549c7afa7c9602be31.16": {
      "guid": "483e35811bfa44549c7afa7c9602be31.16",
      "lat": 22.609546,
      "lng": 88.416352,
      "name": "Krishnapur Upanagar Kali Mandir, Dum Dum Park"
    },
    "4859ab0e25cc4159b7bc179e714a60c2.16": {
      "guid": "4859ab0e25cc4159b7bc179e714a60c2.16",
      "lat": 22.491194,
      "lng": 88.363658,
      "name": "Netajj Subhash Chandra Basu Statue "
    },
    "48eb915f8e2b4308b66f8e240cadd876.16": {
      "guid": "48eb915f8e2b4308b66f8e240cadd876.16",
      "lat": 22.578981,
      "lng": 88.309281,
      "name": "Shib Hanuman Temple at Dumurjala"
    },
    "4923d5f4a0b141c789745e91924ed6e9.16": {
      "guid": "4923d5f4a0b141c789745e91924ed6e9.16",
      "lat": 22.660304,
      "lng": 88.410519,
      "name": "Shiv Temple"
    },
    "498c23fdc7af4b35a06e3da853ede9e1.16": {
      "guid": "498c23fdc7af4b35a06e3da853ede9e1.16",
      "lat": 22.446249,
      "lng": 88.416384,
      "name": "Mihirendra Sengupta Statue"
    },
    "49b072fa8a1147429f445a420b737622.16": {
      "guid": "49b072fa8a1147429f445a420b737622.16",
      "lat": 22.513197,
      "lng": 88.345771,
      "name": "Shoni Temple"
    },
    "49b40fecb2524763b5bac0bcd45ebe05.16": {
      "guid": "49b40fecb2524763b5bac0bcd45ebe05.16",
      "lat": 22.603885,
      "lng": 88.423858,
      "name": "Sani Kali mondir"
    },
    "4a046cc7c6c0415397547019e959bf80.16": {
      "guid": "4a046cc7c6c0415397547019e959bf80.16",
      "lat": 22.877304,
      "lng": 88.409338,
      "name": "Pancharashashan Temple"
    },
    "4a39834651bd418881a793fe3275d48e.16": {
      "guid": "4a39834651bd418881a793fe3275d48e.16",
      "lat": 22.627325,
      "lng": 88.397255,
      "name": "Anuranjan Children park"
    },
    "4a4f0d7956e04ecc9293cb9d8f250971.16": {
      "guid": "4a4f0d7956e04ecc9293cb9d8f250971.16",
      "lat": 22.514974,
      "lng": 88.354841,
      "name": "Shiv Temple Tree"
    },
    "4a7edf6be01a461fbfac6495a06057e3.16": {
      "guid": "4a7edf6be01a461fbfac6495a06057e3.16",
      "lat": 22.76314,
      "lng": 88.37446,
      "name": "Annanda Puri Kali Mata Goddess"
    },
    "4a849104512a41dca45d15588122e385.16": {
      "guid": "4a849104512a41dca45d15588122e385.16",
      "lat": 22.559658,
      "lng": 88.415493,
      "name": "Sukanta Nagar Children's Park"
    },
    "4aab428403e84cdcbe732002f0174884.16": {
      "guid": "4aab428403e84cdcbe732002f0174884.16",
      "lat": 22.508564,
      "lng": 88.36704,
      "name": "Dakshinapan Kali Temple"
    },
    "4ad68bd73f7e4971aa1e61dae3090fb0.16": {
      "guid": "4ad68bd73f7e4971aa1e61dae3090fb0.16",
      "lat": 22.510233,
      "lng": 88.383298,
      "name": " Ma Kali Temple"
    },
    "4ae9950b93e94a2fab8cf3ec8d7c3765.16": {
      "guid": "4ae9950b93e94a2fab8cf3ec8d7c3765.16",
      "lat": 22.592384,
      "lng": 88.284504,
      "name": "Tank Near KVS"
    },
    "4aedd0abff204cc890f14c9ab4594a71.16": {
      "guid": "4aedd0abff204cc890f14c9ab4594a71.16",
      "lat": 22.581017,
      "lng": 88.365683,
      "name": "Lek Tantania Mandir"
    },
    "4b080d2f646b44d08b9e03091ab4b302.16": {
      "guid": "4b080d2f646b44d08b9e03091ab4b302.16",
      "lat": 22.506801,
      "lng": 88.345157,
      "name": "Tollygunge Post Office"
    },
    "4b3cc432f07d4d9987dacdca83d8561e.16": {
      "guid": "4b3cc432f07d4d9987dacdca83d8561e.16",
      "lat": 22.580503,
      "lng": 88.279589,
      "name": "Baro Babar Mandir"
    },
    "4b5fa4976b474f1985cf0309ea9a1a7c.16": {
      "guid": "4b5fa4976b474f1985cf0309ea9a1a7c.16",
      "lat": 22.504935,
      "lng": 88.376128,
      "name": "Shiv Temple Under Tree"
    },
    "4b99f4987b9b45799c8433f8224a5752.16": {
      "guid": "4b99f4987b9b45799c8433f8224a5752.16",
      "lat": 22.526824,
      "lng": 88.321733,
      "name": "Hossain Shah Park"
    },
    "4bbfa13c83714e0c9ad2069b3d5b1f56.16": {
      "guid": "4bbfa13c83714e0c9ad2069b3d5b1f56.16",
      "lat": 22.46065,
      "lng": 88.397482,
      "name": "Sahapara Shitala Mandir"
    },
    "4bcc73132c9a4bdc934e0b722dc284de.16": {
      "guid": "4bcc73132c9a4bdc934e0b722dc284de.16",
      "lat": 22.559977,
      "lng": 88.317325,
      "name": "Shree Shree Shitala Mandir"
    },
    "4c1aef75f4cb4f00b0a259aeac287596.16": {
      "guid": "4c1aef75f4cb4f00b0a259aeac287596.16",
      "lat": 22.841869,
      "lng": 88.381367,
      "name": "Athpur Panchanan Tala Temple"
    },
    "4cfb96f3f089430a93fd203b198b00eb.16": {
      "guid": "4cfb96f3f089430a93fd203b198b00eb.16",
      "lat": 22.58045,
      "lng": 88.283661,
      "name": "Shree Shree Shyam Sundar Mandir"
    },
    "4d0f0e33f03d4b9ca710f0d7a1cad31d.16": {
      "guid": "4d0f0e33f03d4b9ca710f0d7a1cad31d.16",
      "lat": 22.471944,
      "lng": 88.377327,
      "name": "Baishnabghata Jora Mandir Baishnabghata Kolkata "
    },
    "4d487aaceee64c6b976edc8b28895feb.16": {
      "guid": "4d487aaceee64c6b976edc8b28895feb.16",
      "lat": 22.471848,
      "lng": 88.309749,
      "name": "Kadamtala Sani Mandir"
    },
    "4d67126488b94d8d8a7a80b93f8681cc.16": {
      "guid": "4d67126488b94d8d8a7a80b93f8681cc.16",
      "lat": 22.472765,
      "lng": 88.397804,
      "name": "নিউ গড়িয়া রেল স্টেশন"
    },
    "4e9c1513a01946e59ecbb80101205752.16": {
      "guid": "4e9c1513a01946e59ecbb80101205752.16",
      "lat": 22.631614,
      "lng": 88.417614,
      "name": "Kali Temple"
    },
    "4f850174d5f740209364a574b7d01f73.16": {
      "guid": "4f850174d5f740209364a574b7d01f73.16",
      "lat": 22.979037,
      "lng": 88.442343,
      "name": "Bengal Cricket Association"
    },
    "4ffa1e098e3e459babaf4cf616502a99.16": {
      "guid": "4ffa1e098e3e459babaf4cf616502a99.16",
      "lat": 22.477276,
      "lng": 88.360532,
      "name": "Maa Annapurna Temple"
    },
    "5025a54ad93f411391322a30f30bc7cf.16": {
      "guid": "5025a54ad93f411391322a30f30bc7cf.16",
      "lat": 22.423958,
      "lng": 88.424346,
      "name": "Sitala And Shiv Temple"
    },
    "509cb4a31ece46a8b2acf7f459a55de7.16": {
      "guid": "509cb4a31ece46a8b2acf7f459a55de7.16",
      "lat": 22.534974,
      "lng": 88.333467,
      "name": "National Library"
    },
    "50a72ee4a1e148198072f985a7832ba9.16": {
      "guid": "50a72ee4a1e148198072f985a7832ba9.16",
      "lat": 22.632228,
      "lng": 88.356531,
      "name": "Ramakrishna Temple Belur Math"
    },
    "50d714bf20f3499c8136ae832fe972ac.16": {
      "guid": "50d714bf20f3499c8136ae832fe972ac.16",
      "isEx": true,
      "lat": 22.547182,
      "lng": 88.342932,
      "name": "Royal Lions"
    },
    "50e5c9b564b2424abccb867a451f3260.16": {
      "guid": "50e5c9b564b2424abccb867a451f3260.16",
      "isEx": true,
      "lat": 22.587737,
      "lng": 88.419536,
      "name": "Dhaki Mural"
    },
    "50fe3cde65e34230adadde97801af64a.16": {
      "guid": "50fe3cde65e34230adadde97801af64a.16",
      "lat": 22.621062,
      "lng": 88.454825,
      "name": "Roadside Artwork "
    },
    "51aa3567547f4017ba280f26994b378e.16": {
      "guid": "51aa3567547f4017ba280f26994b378e.16",
      "lat": 22.573906,
      "lng": 88.323732,
      "name": "Lokenath Baba Temple"
    },
    "51eaf3505f944e2296590ae8fbed9487.16": {
      "guid": "51eaf3505f944e2296590ae8fbed9487.16",
      "lat": 22.496046,
      "lng": 88.361173,
      "name": "Swamiji Uddyan "
    },
    "522e7ebe8643412f914bfdbdcb0f9545.16": {
      "guid": "522e7ebe8643412f914bfdbdcb0f9545.16",
      "lat": 22.635961,
      "lng": 88.411043,
      "name": "সত্যনারায়ণ মন্দির।"
    },
    "5239758875cc42eea8c6e41d79bf8a21.16": {
      "guid": "5239758875cc42eea8c6e41d79bf8a21.16",
      "lat": 22.641565,
      "lng": 88.430605,
      "name": "Rabindrakala Building Entry"
    },
    "5279f28bab194839917d975cd45a8d0d.16": {
      "guid": "5279f28bab194839917d975cd45a8d0d.16",
      "lat": 22.986122,
      "lng": 88.447398,
      "name": "Central Library"
    },
    "5294e974936745b58e110ac2b75b2667.16": {
      "guid": "5294e974936745b58e110ac2b75b2667.16",
      "lat": 22.719694,
      "lng": 88.481239,
      "name": "Sri Sri Shani o Kali Mandir"
    },
    "52e526204e4e4e6886d69521732f42c1.16": {
      "guid": "52e526204e4e4e6886d69521732f42c1.16",
      "lat": 22.573427,
      "lng": 88.310077,
      "name": "Milan Mandir Public Library"
    },
    "53365d2f176e451e9a3e8c29fd10ea03.16": {
      "guid": "53365d2f176e451e9a3e8c29fd10ea03.16",
      "lat": 22.928001,
      "lng": 88.443264,
      "name": "Doltala Mandir"
    },
    "535df9c6715d46aa93aa5e198aeb8086.16": {
      "guid": "535df9c6715d46aa93aa5e198aeb8086.16",
      "lat": 22.725538,
      "lng": 88.38703,
      "name": "Durga Mandir"
    },
    "535fdb75076a480d9d66b771f49c2599.16": {
      "guid": "535fdb75076a480d9d66b771f49c2599.16",
      "lat": 22.687243,
      "lng": 88.454749,
      "name": "Nabarup Community Library"
    },
    "5386026d9a4a4064b7c7c19658393603.16": {
      "guid": "5386026d9a4a4064b7c7c19658393603.16",
      "lat": 22.502617,
      "lng": 88.225449,
      "name": "Masjid-E-Taiyeb"
    },
    "53a37294f7494a17acc33d80a2876c98.16": {
      "guid": "53a37294f7494a17acc33d80a2876c98.16",
      "lat": 22.503843,
      "lng": 88.394925,
      "name": "Kali Mata Mandir"
    },
    "53cce7df730d48a9a720ad1307a89641.16": {
      "guid": "53cce7df730d48a9a720ad1307a89641.16",
      "lat": 22.768395,
      "lng": 88.539572,
      "name": "Dattapukur Station "
    },
    "5414f2b0564549e897b1f4919e27c96c.16": {
      "guid": "5414f2b0564549e897b1f4919e27c96c.16",
      "lat": 22.495932,
      "lng": 88.406416,
      "name": "Purbalok Kalibarie"
    },
    "541f07339e884fd7ad29f4b2a59e01db.16": {
      "guid": "541f07339e884fd7ad29f4b2a59e01db.16",
      "lat": 22.709957,
      "lng": 88.469321,
      "name": "Shani Temple"
    },
    "545e99ec1d3a4398a5986acca77a516a.16": {
      "guid": "545e99ec1d3a4398a5986acca77a516a.16",
      "lat": 22.579503,
      "lng": 88.360827,
      "name": "AC MG Masjid "
    },
    "5550f495efdc4a4c994391c2bcc39dbb.16": {
      "guid": "5550f495efdc4a4c994391c2bcc39dbb.16",
      "lat": 22.564382,
      "lng": 88.296558,
      "name": "Dinanta Ashar Kali Temple"
    },
    "5562deeb4c454b5499b7d9882a799afb.16": {
      "guid": "5562deeb4c454b5499b7d9882a799afb.16",
      "lat": 22.642007,
      "lng": 88.430993,
      "name": "Shani Kali Mandir"
    },
    "55983770f95041f5a24c721516c3cd2b.16": {
      "guid": "55983770f95041f5a24c721516c3cd2b.16",
      "lat": 22.383835,
      "lng": 88.418573,
      "name": "Shiv Mandir At Khasmallick"
    },
    "55d8745a79e44227afc295870fffcb78.16": {
      "guid": "55d8745a79e44227afc295870fffcb78.16",
      "lat": 22.561674,
      "lng": 88.402104,
      "name": "Kali Maa Mural"
    },
    "5640f0cdacfd483ab7ba64a8bd4e063b.16": {
      "guid": "5640f0cdacfd483ab7ba64a8bd4e063b.16",
      "lat": 22.557485,
      "lng": 88.306936,
      "name": "Kavi Najrul Islam Bust Status"
    },
    "565e5f79cb674f25ad2e2726ee37da10.16": {
      "guid": "565e5f79cb674f25ad2e2726ee37da10.16",
      "lat": 22.47401,
      "lng": 88.36195,
      "name": "Shiva Temple "
    },
    "5667dbe2bbc6455492d786437300e1f2.16": {
      "guid": "5667dbe2bbc6455492d786437300e1f2.16",
      "lat": 22.582661,
      "lng": 88.338956,
      "name": "Howrah Water Supply"
    },
    "56d15769bc5e4a36b0fe50d8b0725c42.16": {
      "guid": "56d15769bc5e4a36b0fe50d8b0725c42.16",
      "lat": 22.585412,
      "lng": 88.437709,
      "name": "Emmanuel Church"
    },
    "56dbf0e4ad1342708fbe415c9dbefc00.16": {
      "guid": "56dbf0e4ad1342708fbe415c9dbefc00.16",
      "lat": 22.582535,
      "lng": 88.426977,
      "name": "Sculpture Of The Classic Indian Maiden"
    },
    "570394e9543448179f3096a1c64162a4.16": {
      "guid": "570394e9543448179f3096a1c64162a4.16",
      "lat": 22.565483,
      "lng": 88.352032,
      "name": "Mosque"
    },
    "57216398fdef4ca3a96eab74cb628555.16": {
      "guid": "57216398fdef4ca3a96eab74cb628555.16",
      "lat": 22.520099,
      "lng": 88.382499,
      "name": "Shiv Temple"
    },
    "5755a152c8824040bb827421bc664938.16": {
      "guid": "5755a152c8824040bb827421bc664938.16",
      "lat": 22.582821,
      "lng": 88.314265,
      "name": "Entrance to Bhogini Nibedita Shishu Udyan"
    },
    "5780e17f92a44cae999a7df1e952f971.16": {
      "guid": "5780e17f92a44cae999a7df1e952f971.16",
      "lat": 22.657363,
      "lng": 88.357777,
      "name": "Dakhineswar Water Supply"
    },
    "57f29fb18be5446bb4973d99e597cf32.16": {
      "guid": "57f29fb18be5446bb4973d99e597cf32.16",
      "isEx": true,
      "lat": 22.594989,
      "lng": 88.472415,
      "name": "Eco Park Murals"
    },
    "584b6baf44914c1f9d3c546efc20fca8.16": {
      "guid": "584b6baf44914c1f9d3c546efc20fca8.16",
      "lat": 22.827971,
      "lng": 88.341515,
      "name": "Bharadreswar Railway Station "
    },
    "59ca3ea46075465c95c7ac7504466e41.16": {
      "guid": "59ca3ea46075465c95c7ac7504466e41.16",
      "isEx": true,
      "lat": 22.505008,
      "lng": 88.366445,
      "name": "Entrance To Jodhpur Park"
    },
    "5a02cacbf668430b9bb7d86461ccb4f1.16": {
      "guid": "5a02cacbf668430b9bb7d86461ccb4f1.16",
      "lat": 22.509341,
      "lng": 88.36768,
      "name": "Hanuman Temple,  Dhakuria,  Kolkata "
    },
    "5a64a074d4c14c718cc5d8f8e9a043b4.16": {
      "guid": "5a64a074d4c14c718cc5d8f8e9a043b4.16",
      "lat": 22.950088,
      "lng": 88.44112,
      "name": "Water Tank Kanchrapara"
    },
    "5aa86de049664fd090e6eb39958f6595.16": {
      "guid": "5aa86de049664fd090e6eb39958f6595.16",
      "lat": 22.697052,
      "lng": 88.256283,
      "name": "Small Temple "
    },
    "5ae5a9a4def440cd813241b2a07b554f.16": {
      "guid": "5ae5a9a4def440cd813241b2a07b554f.16",
      "lat": 22.453812,
      "lng": 88.418463,
      "name": "Swami Vivekananda Statue"
    },
    "5b9d201940ea46a4a871fa83e40bd3b2.16": {
      "guid": "5b9d201940ea46a4a871fa83e40bd3b2.16",
      "lat": 22.764525,
      "lng": 88.356708,
      "name": "St.Bartholomew's Cathedral, CNI Protestant Church"
    },
    "5c4497d227704111800b721176dec912.16": {
      "guid": "5c4497d227704111800b721176dec912.16",
      "lat": 22.709605,
      "lng": 88.476318,
      "name": "8th Pally Durga Mancha"
    },
    "5c5a997f2ab84ed9ba802c8a0a527d4d.16": {
      "guid": "5c5a997f2ab84ed9ba802c8a0a527d4d.16",
      "lat": 22.6124,
      "lng": 88.404215,
      "name": "kashi shiva mandir"
    },
    "5c629430ea644a758240fea3cca2f0a8.16": {
      "guid": "5c629430ea644a758240fea3cca2f0a8.16",
      "lat": 22.486593,
      "lng": 88.361534,
      "name": "bijoygarh maa tara hanuman temple."
    },
    "5ccb4658a7ac442dadc48e31353b7448.16": {
      "guid": "5ccb4658a7ac442dadc48e31353b7448.16",
      "lat": 22.564826,
      "lng": 88.216251,
      "name": "Shiv Mandir Bharat Cooperative"
    },
    "5e2fd80924dc4cb29d1840dc0c0c178f.16": {
      "guid": "5e2fd80924dc4cb29d1840dc0c0c178f.16",
      "lat": 22.607329,
      "lng": 88.402838,
      "name": "Sri sri kali shoni mandir"
    },
    "5e5bf75b2171403397e5e443adfc4678.16": {
      "guid": "5e5bf75b2171403397e5e443adfc4678.16",
      "lat": 22.888022,
      "lng": 88.417772,
      "name": "The Great Professor Ishwar Chandra Vidyasagar Wall Mural"
    },
    "5e614a5beefe4edd931e0f5a3d2938a8.16": {
      "guid": "5e614a5beefe4edd931e0f5a3d2938a8.16",
      "lat": 22.484451,
      "lng": 88.311926,
      "name": "Oxford Mission"
    },
    "5e7b100ccab54b1eba70dcdf19708c00.16": {
      "guid": "5e7b100ccab54b1eba70dcdf19708c00.16",
      "lat": 22.544784,
      "lng": 88.398107,
      "name": "Pala Replicas - Curvy lady"
    },
    "5eed947ecc9b47db9eaf3f7e23038b2e.16": {
      "guid": "5eed947ecc9b47db9eaf3f7e23038b2e.16",
      "lat": 22.662453,
      "lng": 88.395707,
      "name": "Pubpara Shiv Mandir"
    },
    "5f4d41a801d645e79d1b41fcb6e75e9e.16": {
      "guid": "5f4d41a801d645e79d1b41fcb6e75e9e.16",
      "lat": 22.663173,
      "lng": 88.384794,
      "name": "Provash Sarkar Shishu Udayan"
    },
    "5f685bc9d4704a3a96410d35399c4afa.16": {
      "guid": "5f685bc9d4704a3a96410d35399c4afa.16",
      "lat": 22.703061,
      "lng": 88.461958,
      "name": "Maa Manasha Temple "
    },
    "5fe6709a829644489213f2d7fae3ed07.16": {
      "guid": "5fe6709a829644489213f2d7fae3ed07.16",
      "lat": 22.608061,
      "lng": 88.398429,
      "name": "Bust of Pijush Chandra Ghosh"
    },
    "601907405e9a4d3daffd237d4e2b6c6e.16": {
      "guid": "601907405e9a4d3daffd237d4e2b6c6e.16",
      "lat": 22.69674,
      "lng": 88.44196,
      "name": "Maa Tara Shakti Temple"
    },
    "603446eed75044c1a882760cdecc6ce9.16": {
      "guid": "603446eed75044c1a882760cdecc6ce9.16",
      "lat": 22.602527,
      "lng": 88.401007,
      "name": "Baba Lokenath Mandir"
    },
    "605d82a6d35542879e226778609b2315.16": {
      "guid": "605d82a6d35542879e226778609b2315.16",
      "lat": 22.566223,
      "lng": 88.22459,
      "name": "Kali Mandir"
    },
    "6087342cb82d4e8bb89d422280dffd90.16": {
      "guid": "6087342cb82d4e8bb89d422280dffd90.16",
      "lat": 22.615132,
      "lng": 88.402245,
      "name": "suval dutta's kali ma mandir"
    },
    "61f21fff9e6a44aab27a6e80cc2bd669.16": {
      "guid": "61f21fff9e6a44aab27a6e80cc2bd669.16",
      "lat": 22.499151,
      "lng": 88.316502,
      "name": "Vidyasagar Statue"
    },
    "621704b2ff024b2f9893338e9870645d.16": {
      "guid": "621704b2ff024b2f9893338e9870645d.16",
      "lat": 22.724025,
      "lng": 88.483801,
      "name": "Barasat Junction "
    },
    "633cc1b6620a4b8dbb4e31aba17b02bf.16": {
      "guid": "633cc1b6620a4b8dbb4e31aba17b02bf.16",
      "lat": 22.583692,
      "lng": 88.32089,
      "name": "Bust of Rabindranath Tagore"
    },
    "63818787787c4cdc9355021fb99ce143.16": {
      "guid": "63818787787c4cdc9355021fb99ce143.16",
      "lat": 22.472189,
      "lng": 88.366059,
      "name": "Shiva Temple, Naktala"
    },
    "639edacb4bb048f8993272ee012df903.16": {
      "guid": "639edacb4bb048f8993272ee012df903.16",
      "lat": 22.567366,
      "lng": 88.370681,
      "name": "Mural at Sealdah Railway Station"
    },
    "63a0768f6bf749cab1268ab07b8148dc.16": {
      "guid": "63a0768f6bf749cab1268ab07b8148dc.16",
      "lat": 22.975424,
      "lng": 88.434419,
      "name": "Rabindranath Tagore Statue"
    },
    "64d2dbb52bd84548ab86636092c7a84c.16": {
      "guid": "64d2dbb52bd84548ab86636092c7a84c.16",
      "lat": 22.505872,
      "lng": 88.340513,
      "name": "Maa Kali Temple "
    },
    "6531af9062dc4d3a896047eef87e1967.11": {
      "guid": "6531af9062dc4d3a896047eef87e1967.11",
      "lat": 22.55961,
      "lng": 88.352923,
      "name": "New Market , Esplanade"
    },
    "655c6255409e4fc78938b19028742723.16": {
      "guid": "655c6255409e4fc78938b19028742723.16",
      "isEx": true,
      "lat": 22.599866,
      "lng": 88.376899,
      "name": "Desbondhu Chittaranjan Das Statue In Desbondhu Park"
    },
    "657a533e7ce54bcdb54f59f091a8a7c5.16": {
      "guid": "657a533e7ce54bcdb54f59f091a8a7c5.16",
      "lat": 22.942224,
      "lng": 88.414884,
      "name": "Assam Bangiya Saraswat Math"
    },
    "65933f544e5d4ac1a6e169d0d4785a16.16": {
      "guid": "65933f544e5d4ac1a6e169d0d4785a16.16",
      "lat": 22.580925,
      "lng": 88.412134,
      "name": "Tank No 11"
    },
    "6691fec0aa94486fbd2241986d40a60d.16": {
      "guid": "6691fec0aa94486fbd2241986d40a60d.16",
      "lat": 22.694757,
      "lng": 88.459681,
      "name": "Shani Temple"
    },
    "66ab21bf18bd4a018a6272acdad74eac.16": {
      "guid": "66ab21bf18bd4a018a6272acdad74eac.16",
      "lat": 22.499619,
      "lng": 88.231473,
      "name": "Shani Temple"
    },
    "66ad12b1c86b497c9a82bc7361037b92.16": {
      "guid": "66ad12b1c86b497c9a82bc7361037b92.16",
      "lat": 22.569152,
      "lng": 88.421489,
      "name": "Eiffel Tower "
    },
    "66eea125c37248cb80969b4c1309b8ca.16": {
      "guid": "66eea125c37248cb80969b4c1309b8ca.16",
      "lat": 22.509217,
      "lng": 88.404265,
      "name": "Sri sri boro thakur o kali mata mandir"
    },
    "6825da9fa6f642d4a5bce5736081185b.16": {
      "guid": "6825da9fa6f642d4a5bce5736081185b.16",
      "lat": 22.643722,
      "lng": 88.432322,
      "name": "Baba Mandir"
    },
    "6902bbe163d94a73ac9ed5ecbd71be9b.16": {
      "guid": "6902bbe163d94a73ac9ed5ecbd71be9b.16",
      "lat": 22.473025,
      "lng": 88.34963,
      "name": "Aurobindo park Kali temple"
    },
    "695ea41af6d848a9846c0ef169f55ce5.16": {
      "guid": "695ea41af6d848a9846c0ef169f55ce5.16",
      "lat": 22.502097,
      "lng": 88.518374,
      "name": "Roadside Artwork "
    },
    "697e861421044c6daec0a7b82fb45b17.16": {
      "guid": "697e861421044c6daec0a7b82fb45b17.16",
      "lat": 22.620882,
      "lng": 88.438392,
      "name": "Bust of Netaji Subash chandra bose"
    },
    "69ebf5c264af41858547b20db3c2a06d.16": {
      "guid": "69ebf5c264af41858547b20db3c2a06d.16",
      "lat": 22.660171,
      "lng": 88.416984,
      "name": "Bust of Rabindranath Tagore and Kazi Nazrul Islam"
    },
    "69f1bc663c4b4cb187a298f3aa714c17.16": {
      "guid": "69f1bc663c4b4cb187a298f3aa714c17.16",
      "lat": 22.60357,
      "lng": 88.411815,
      "name": "Dancing Gods "
    },
    "6a95bf402f1546bf893047e63620039e.16": {
      "guid": "6a95bf402f1546bf893047e63620039e.16",
      "lat": 22.587768,
      "lng": 88.30976,
      "name": "Dumurjala Eco Park"
    },
    "6a9ca0eb101741b0b111f1dc66cb647a.16": {
      "guid": "6a9ca0eb101741b0b111f1dc66cb647a.16",
      "lat": 22.713991,
      "lng": 88.468518,
      "name": "Shiva Temple Nabodal,Hridaypur"
    },
    "6b07e509c7a2496588399aa11dbf72c8.16": {
      "guid": "6b07e509c7a2496588399aa11dbf72c8.16",
      "lat": 22.570642,
      "lng": 88.402976,
      "name": "Roadside Temple"
    },
    "6b15a6a40aaa46549ef432a1b7d6e894.16": {
      "guid": "6b15a6a40aaa46549ef432a1b7d6e894.16",
      "lat": 22.485387,
      "lng": 88.369183,
      "name": "Kali Temple"
    },
    "6b172341dff648f5a7359fa4e1d9e2c4.16": {
      "guid": "6b172341dff648f5a7359fa4e1d9e2c4.16",
      "lat": 22.585012,
      "lng": 88.411943,
      "name": "Swami Vivekanada Park"
    },
    "6b53952a2dd54471b68e4f81bae78b50.16": {
      "guid": "6b53952a2dd54471b68e4f81bae78b50.16",
      "lat": 22.615947,
      "lng": 88.429112,
      "name": "Shiva Durga Temple"
    },
    "6b7161c8dfcb41bd921c3c9e59b50a22.16": {
      "guid": "6b7161c8dfcb41bd921c3c9e59b50a22.16",
      "lat": 22.97165,
      "lng": 88.465977,
      "name": "Kalyani Central Bus Terminal"
    },
    "6b8ea59066e1468f852d3c5f3a18a150.16": {
      "guid": "6b8ea59066e1468f852d3c5f3a18a150.16",
      "lat": 22.476433,
      "lng": 88.375411,
      "name": "Ganguly Bagan Water  Tank,  Ganguly  Bagan,  Kolkata "
    },
    "6b9dffe047de41ba9545c4063081b8ea.16": {
      "guid": "6b9dffe047de41ba9545c4063081b8ea.16",
      "lat": 22.569554,
      "lng": 88.370834,
      "name": "St  John's Catholic Church Acharya Prafullo Chandra Street"
    },
    "6bc5822462d04d8594139f20a753c5ce.16": {
      "guid": "6bc5822462d04d8594139f20a753c5ce.16",
      "lat": 22.66421,
      "lng": 88.400055,
      "name": "Durga Mandir"
    },
    "6c1ef67e0f5b414cb748a273b2d758f2.16": {
      "guid": "6c1ef67e0f5b414cb748a273b2d758f2.16",
      "lat": 22.857998,
      "lng": 88.37472,
      "name": "Anil Singh Park Grand Entrance"
    },
    "6c2ea1e3e8784507ab10940af4546d53.16": {
      "guid": "6c2ea1e3e8784507ab10940af4546d53.16",
      "lat": 22.654391,
      "lng": 88.340291,
      "name": "Bally Railway Junction"
    },
    "6c64e8c8cf2a43c684093d2bf08d11dc.16": {
      "guid": "6c64e8c8cf2a43c684093d2bf08d11dc.16",
      "lat": 22.654058,
      "lng": 88.362321,
      "name": "Dakhineshwar Station"
    },
    "6c84248ddb22483d972e2bc6196a6220.16": {
      "guid": "6c84248ddb22483d972e2bc6196a6220.16",
      "lat": 22.581329,
      "lng": 88.273547,
      "name": "Sai Baba Mandir"
    },
    "6c91c484144d4a9a83e0105e5c15a1cb.16": {
      "guid": "6c91c484144d4a9a83e0105e5c15a1cb.16",
      "lat": 22.631108,
      "lng": 88.42341,
      "name": "Afghan War Memorial"
    },
    "6da057a650d84c3da5219633235245bf.16": {
      "guid": "6da057a650d84c3da5219633235245bf.16",
      "lat": 22.964606,
      "lng": 88.462814,
      "name": "Swami Vivekananda Statue"
    },
    "6e8fa3437b7d469cb30fc0cca8562db9.16": {
      "guid": "6e8fa3437b7d469cb30fc0cca8562db9.16",
      "lat": 22.567076,
      "lng": 88.282838,
      "name": "Hanuman Temple"
    },
    "6ea804d2ccf845b0b940c9f841fbcbfa.16": {
      "guid": "6ea804d2ccf845b0b940c9f841fbcbfa.16",
      "lat": 22.5713,
      "lng": 88.350819,
      "name": "Shiv Mandir at R.N.Mukherjee Road"
    },
    "6ebbc40a00bb4625ad93dc17b9c41281.16": {
      "guid": "6ebbc40a00bb4625ad93dc17b9c41281.16",
      "lat": 22.577042,
      "lng": 88.311264,
      "name": "Radhakrishna Temple"
    },
    "6ebeb9e11b324f7bbf5e36d68ce88451.16": {
      "guid": "6ebeb9e11b324f7bbf5e36d68ce88451.16",
      "lat": 22.487948,
      "lng": 88.366215,
      "name": "Sitala Temple"
    },
    "6ed732b189d547eb9741d3b04f1d6d25.16": {
      "guid": "6ed732b189d547eb9741d3b04f1d6d25.16",
      "lat": 22.775047,
      "lng": 88.545686,
      "name": "Karunamoyi Library"
    },
    "6ed7c71b0c9c41ceb2ebad50f1f5396e.16": {
      "guid": "6ed7c71b0c9c41ceb2ebad50f1f5396e.16",
      "lat": 22.631545,
      "lng": 88.352686,
      "name": "Ramakrishna Mission Saradapith"
    },
    "6f22d3ff502a426c962b40809eecbf15.16": {
      "guid": "6f22d3ff502a426c962b40809eecbf15.16",
      "lat": 22.619192,
      "lng": 88.437774,
      "name": "Bust of Swami Vivekananda"
    },
    "6f34f96f616b460c81cdd7911f5720c7.16": {
      "guid": "6f34f96f616b460c81cdd7911f5720c7.16",
      "lat": 22.879211,
      "lng": 88.426163,
      "name": "Vidyasagar Field Water Tank"
    },
    "6fa8add21ca34085b13a528ce9ebd10d.16": {
      "guid": "6fa8add21ca34085b13a528ce9ebd10d.16",
      "lat": 22.457462,
      "lng": 88.30777,
      "name": "Sri Sri Shitala and Rakha Kali Mata Mandir"
    },
    "6ff1f5963309456498152a37adf8232f.16": {
      "guid": "6ff1f5963309456498152a37adf8232f.16",
      "lat": 22.472343,
      "lng": 88.389259,
      "name": "Football Players "
    },
    "6ff6363cd5594142af0d6391203a8765.16": {
      "guid": "6ff6363cd5594142af0d6391203a8765.16",
      "lat": 22.474015,
      "lng": 88.360804,
      "name": "Masterda Surya Sen Metro Rail Station "
    },
    "70402080084a4f64ab696429c3cc6431.16": {
      "guid": "70402080084a4f64ab696429c3cc6431.16",
      "lat": 22.513984,
      "lng": 88.352922,
      "name": "S B Road"
    },
    "70417bbd85c04a51b11d641e3f06db38.16": {
      "guid": "70417bbd85c04a51b11d641e3f06db38.16",
      "lat": 22.692869,
      "lng": 88.463486,
      "name": "Bust Of Netaji Subhas Chandra"
    },
    "708b6abfc68c4c7499f5896e96d9ba36.16": {
      "guid": "708b6abfc68c4c7499f5896e96d9ba36.16",
      "lat": 22.457458,
      "lng": 88.384602,
      "name": "Garia Hanuman Mandir"
    },
    "70909191836f49ce854f14efee3f9112.16": {
      "guid": "70909191836f49ce854f14efee3f9112.16",
      "lat": 22.466763,
      "lng": 88.308449,
      "name": "Baba Lokenath Dham"
    },
    "70d105d14ed5447d82eb192e5fb8befa.16": {
      "guid": "70d105d14ed5447d82eb192e5fb8befa.16",
      "lat": 22.591972,
      "lng": 88.428276,
      "name": "Rabindra Park"
    },
    "70dec9ce413a4a2896dffb543ac3cafe.16": {
      "guid": "70dec9ce413a4a2896dffb543ac3cafe.16",
      "lat": 22.710106,
      "lng": 88.374297,
      "name": "G.T.S Tower, Sodepur"
    },
    "70e9228aaa084933a38add308acd5c2d.16": {
      "guid": "70e9228aaa084933a38add308acd5c2d.16",
      "lat": 22.499771,
      "lng": 88.369455,
      "name": "Jadavpur University Gate 4"
    },
    "71055e8a5baf4fd8b82871330386be1f.16": {
      "guid": "71055e8a5baf4fd8b82871330386be1f.16",
      "lat": 22.661932,
      "lng": 88.380957,
      "name": "Dewanpara Krira o Sangskritic Sangha"
    },
    "7114fd94a24d4a6d9f815c513b668022.16": {
      "guid": "7114fd94a24d4a6d9f815c513b668022.16",
      "lat": 22.87399,
      "lng": 88.40838,
      "name": "Paanch Mondir: The Five Temples"
    },
    "71e3d37996a14effbc075c3241997076.16": {
      "guid": "71e3d37996a14effbc075c3241997076.16",
      "lat": 22.602412,
      "lng": 88.409584,
      "name": "The Wild Bull"
    },
    "7208ff6a462442c8af7ff2fadea40eee.16": {
      "guid": "7208ff6a462442c8af7ff2fadea40eee.16",
      "lat": 22.572262,
      "lng": 88.426634,
      "name": "Institute of Arts Gate 1 ( Roop Kala Kendra) "
    },
    "72795fe7b12747eb9a2b18e595c10e60.16": {
      "guid": "72795fe7b12747eb9a2b18e595c10e60.16",
      "lat": 22.680334,
      "lng": 88.456023,
      "name": "Mickey And Minnie Mouse"
    },
    "729f67c612ce4c59a451d057becff38a.16": {
      "guid": "729f67c612ce4c59a451d057becff38a.16",
      "lat": 22.523529,
      "lng": 88.346661,
      "name": "Indira Gandhi Statue"
    },
    "72cf5099178e4731bf4d76456d0cb729.16": {
      "guid": "72cf5099178e4731bf4d76456d0cb729.16",
      "lat": 22.577897,
      "lng": 88.290837,
      "name": "Hanumana Mandir"
    },
    "73166aa3cc4e447eab0727991290f32b.16": {
      "guid": "73166aa3cc4e447eab0727991290f32b.16",
      "lat": 22.580151,
      "lng": 88.290247,
      "name": "Tapan Dutta Memorial Statue"
    },
    "74101b0886de49b79e2c5cc8f954ac3d.16": {
      "guid": "74101b0886de49b79e2c5cc8f954ac3d.16",
      "lat": 22.497055,
      "lng": 88.370348,
      "name": "Sri Sri Romona Kali Mandir"
    },
    "7461222448024b648f29c4180f9a654e.16": {
      "guid": "7461222448024b648f29c4180f9a654e.16",
      "lat": 22.726465,
      "lng": 88.377195,
      "name": "Ma Kali Mandir"
    },
    "74ca293af5414cafa85ff3c988744f66.16": {
      "guid": "74ca293af5414cafa85ff3c988744f66.16",
      "lat": 22.554199,
      "lng": 88.359022,
      "name": "Ripon Street Masjid"
    },
    "762f8699a16644389a275629444c8cc0.16": {
      "guid": "762f8699a16644389a275629444c8cc0.16",
      "lat": 22.687916,
      "lng": 88.461236,
      "name": "Small Mandir Of Lord Shiva"
    },
    "76c68509333f4e9d8851e5ab434dbd49.16": {
      "guid": "76c68509333f4e9d8851e5ab434dbd49.16",
      "lat": 22.92289,
      "lng": 88.434165,
      "name": "Bust Of Ramakrishna"
    },
    "76d0715046ce47bdbeb5fd6c729f20a8.16": {
      "guid": "76d0715046ce47bdbeb5fd6c729f20a8.16",
      "lat": 22.514399,
      "lng": 88.3938,
      "name": "Gitanjali stadium "
    },
    "76e78d2f9586420a84c0ec100255400a.16": {
      "guid": "76e78d2f9586420a84c0ec100255400a.16",
      "lat": 22.968506,
      "lng": 88.466386,
      "name": "Kalyani Railway Station"
    },
    "76fe799ca3e0467ea3b8931c3e4f9298.16": {
      "guid": "76fe799ca3e0467ea3b8931c3e4f9298.16",
      "lat": 22.702709,
      "lng": 88.471326,
      "name": "STAR MALL"
    },
    "77fc9389409e49709d7dc55e6e4428b7.16": {
      "guid": "77fc9389409e49709d7dc55e6e4428b7.16",
      "lat": 22.695992,
      "lng": 88.466029,
      "name": "Small Bholanath Temple"
    },
    "783e7f2053884031bf22bf47f09dc823.16": {
      "guid": "783e7f2053884031bf22bf47f09dc823.16",
      "lat": 22.653606,
      "lng": 88.387481,
      "name": "Bust of Prafulla Chandra Ray"
    },
    "7865b7260f9f401695aff828019a2f97.16": {
      "guid": "7865b7260f9f401695aff828019a2f97.16",
      "lat": 22.592225,
      "lng": 88.315253,
      "name": "Art Sculpture 2 Human Face On Tree"
    },
    "788c5025384e4b3cbde8f2b31270b156.16": {
      "guid": "788c5025384e4b3cbde8f2b31270b156.16",
      "lat": 22.596714,
      "lng": 88.371146,
      "name": "Hindu Shrine"
    },
    "799f7824f1554836b0f91ad7fb31af2f.16": {
      "guid": "799f7824f1554836b0f91ad7fb31af2f.16",
      "lat": 22.56357,
      "lng": 88.343826,
      "name": "The Cricket Association Of Bengal"
    },
    "79a08f4b54114b24bc792dad76938245.16": {
      "guid": "79a08f4b54114b24bc792dad76938245.16",
      "lat": 22.499715,
      "lng": 88.296414,
      "name": "Small Shiv Mandir"
    },
    "79a9a5d29e3644c599cfc8d91f207253.16": {
      "guid": "79a9a5d29e3644c599cfc8d91f207253.16",
      "lat": 22.739538,
      "lng": 88.372916,
      "name": "Bengal Jana Masjid"
    },
    "79cf9d102f324a4cbc6deed2d283f5c6.16": {
      "guid": "79cf9d102f324a4cbc6deed2d283f5c6.16",
      "lat": 22.502622,
      "lng": 88.381046,
      "name": "Park Beside Bypass Road"
    },
    "7a72d20a00154759b29458edecd9f93c.16": {
      "guid": "7a72d20a00154759b29458edecd9f93c.16",
      "isEx": true,
      "lat": 22.547297,
      "lng": 88.34339,
      "name": "The Pillar of Faith"
    },
    "7a86dec2908142e596f56e449f6f2c4d.16": {
      "guid": "7a86dec2908142e596f56e449f6f2c4d.16",
      "isEx": true,
      "lat": 22.761336,
      "lng": 88.352679,
      "name": "Jumbo Appu, Barrackpore "
    },
    "7ab3dab5b91643179b5cd38f0a449ef9.16": {
      "guid": "7ab3dab5b91643179b5cd38f0a449ef9.16",
      "lat": 22.88664,
      "lng": 88.417409,
      "name": "Naihati Railway Station"
    },
    "7b00e8eda8f34eb69a91bd792f502120.16": {
      "guid": "7b00e8eda8f34eb69a91bd792f502120.16",
      "lat": 22.666836,
      "lng": 88.393199,
      "name": "Bust of Rabindranath Thakur"
    },
    "7b1ef23727ce4ebc8c90bac20224088f.16": {
      "guid": "7b1ef23727ce4ebc8c90bac20224088f.16",
      "lat": 22.46286,
      "lng": 88.379972,
      "name": "Garia Sitala Mandir"
    },
    "7b7f52b4d70948f5acf231e1bdbe2b73.16": {
      "guid": "7b7f52b4d70948f5acf231e1bdbe2b73.16",
      "lat": 22.844818,
      "lng": 88.377095,
      "name": "Shyamnagar Park"
    },
    "7bec4ebdb73f4636b60d90f23253464b.16": {
      "guid": "7bec4ebdb73f4636b60d90f23253464b.16",
      "lat": 22.543133,
      "lng": 88.367622,
      "name": "Masjid-Un-Noor"
    },
    "7d85eeb688bc412393da8b95e7c35823.16": {
      "guid": "7d85eeb688bc412393da8b95e7c35823.16",
      "lat": 22.751555,
      "lng": 88.519227,
      "name": "Kulberia Sri Sri Radhakrishna Jiyu Mandir"
    },
    "7df3c16110364221abf091f58a35aa51.12": {
      "guid": "7df3c16110364221abf091f58a35aa51.12",
      "lat": 22.655671,
      "lng": 88.357736,
      "name": "Swami Vivekananda"
    },
    "7e5aa02c039e4772880ef747cf9f38f8.16": {
      "guid": "7e5aa02c039e4772880ef747cf9f38f8.16",
      "lat": 22.520353,
      "lng": 88.34201,
      "name": "Kali Ghat Temple"
    },
    "7eb97c183c254fc586193b167545ba18.16": {
      "guid": "7eb97c183c254fc586193b167545ba18.16",
      "lat": 22.564913,
      "lng": 88.403616,
      "name": "Bot Tala Kalimandir "
    },
    "7f45c752eed246faac5fb2be2bce1270.16": {
      "guid": "7f45c752eed246faac5fb2be2bce1270.16",
      "lat": 22.710324,
      "lng": 88.468609,
      "name": "Hridaypur Jame Masjid "
    },
    "7f75427ba6ad4488a80545984370868b.16": {
      "guid": "7f75427ba6ad4488a80545984370868b.16",
      "lat": 22.586067,
      "lng": 88.367586,
      "name": "Swami Vivekananda Ancestral House"
    },
    "81592ee61624431cbda343038ecf114e.16": {
      "guid": "81592ee61624431cbda343038ecf114e.16",
      "lat": 22.563708,
      "lng": 88.392699,
      "name": "Kali Mandir"
    },
    "81a5aa1596354ce88b92fee8b117859a.16": {
      "guid": "81a5aa1596354ce88b92fee8b117859a.16",
      "lat": 22.938174,
      "lng": 88.447027,
      "name": "Statue of Bidhan Chandra Roy"
    },
    "81eb92ecf18642a18a9ed2562736846f.16": {
      "guid": "81eb92ecf18642a18a9ed2562736846f.16",
      "lat": 22.533025,
      "lng": 88.353712,
      "name": "Shree Lakshmi Narayan Mandir"
    },
    "822a5d27cda14564bcaf573ae4246a19.16": {
      "guid": "822a5d27cda14564bcaf573ae4246a19.16",
      "isEx": true,
      "lat": 22.56781,
      "lng": 88.343168,
      "name": "Statue of Masterda Surya Sen"
    },
    "822f5078450444cd98788fe735dc5029.16": {
      "guid": "822f5078450444cd98788fe735dc5029.16",
      "lat": 22.88831,
      "lng": 88.412156,
      "name": "Naihati Swapnobithi Park"
    },
    "827a55586535463bab1196fa8f41e52d.16": {
      "guid": "827a55586535463bab1196fa8f41e52d.16",
      "isEx": true,
      "lat": 22.594805,
      "lng": 88.407962,
      "name": "BD Block Park"
    },
    "82fb169917d14c1ea48cd6273b1cff40.16": {
      "guid": "82fb169917d14c1ea48cd6273b1cff40.16",
      "lat": 22.574042,
      "lng": 88.279833,
      "name": "Giant Water Tank At Chandmari Road"
    },
    "8310745024274a44accddb3b2bcc6f04.16": {
      "guid": "8310745024274a44accddb3b2bcc6f04.16",
      "lat": 22.581576,
      "lng": 88.458858,
      "name": "Clock Tower"
    },
    "8344317cabdc4102af068a467c9f66e1.16": {
      "guid": "8344317cabdc4102af068a467c9f66e1.16",
      "lat": 22.57722,
      "lng": 88.313873,
      "name": "Wall art at Howrah Sri Ramakrishna Sangha"
    },
    "8367264647dd4f2e83a17b783268b988.16": {
      "guid": "8367264647dd4f2e83a17b783268b988.16",
      "lat": 22.560342,
      "lng": 88.416904,
      "name": "Buro Babar Shib Mandir"
    },
    "8375892ac0cf4f75a7c11d9485f1a988.16": {
      "guid": "8375892ac0cf4f75a7c11d9485f1a988.16",
      "lat": 22.630834,
      "lng": 88.354314,
      "name": "Belur math"
    },
    "83a4c861675e4ac1afcd4cc6e2563167.16": {
      "guid": "83a4c861675e4ac1afcd4cc6e2563167.16",
      "isEx": true,
      "lat": 22.545547,
      "lng": 88.347034,
      "name": "M P Birla Planetorium"
    },
    "8455e4b52bf0440fb3ebe45ba204b577.16": {
      "guid": "8455e4b52bf0440fb3ebe45ba204b577.16",
      "lat": 22.920468,
      "lng": 88.436623,
      "name": "Halisahar Railway Station"
    },
    "84d870ca13154c00a45f312910be0e4e.16": {
      "guid": "84d870ca13154c00a45f312910be0e4e.16",
      "lat": 22.495956,
      "lng": 88.222467,
      "name": "Netaji Subhas Chandra Bose Statue"
    },
    "850aafdfe758476889e477963c7bf1d2.16": {
      "guid": "850aafdfe758476889e477963c7bf1d2.16",
      "lat": 22.496384,
      "lng": 88.321449,
      "name": "SisirBagan Sitala Temple"
    },
    "853a9a61006f4e0e84bb213c9aad1dbb.16": {
      "guid": "853a9a61006f4e0e84bb213c9aad1dbb.16",
      "lat": 22.900954,
      "lng": 88.396009,
      "name": "Pipulpati water supply"
    },
    "85540761552f428186b19904eb205982.16": {
      "guid": "85540761552f428186b19904eb205982.16",
      "lat": 22.559189,
      "lng": 88.414009,
      "name": "Sukanta Nagar Soni Mandir"
    },
    "8565afcc025d4f8ebfbcd083f44fc4f4.16": {
      "guid": "8565afcc025d4f8ebfbcd083f44fc4f4.16",
      "lat": 22.566413,
      "lng": 88.417757,
      "name": "Gate Of Heaven"
    },
    "85bc309f3fbb4865ae5895c94b530077.16": {
      "guid": "85bc309f3fbb4865ae5895c94b530077.16",
      "lat": 22.593504,
      "lng": 88.3112,
      "name": "Hanuman Mandir"
    },
    "864dfcbc80694219831c5935911d9be9.16": {
      "guid": "864dfcbc80694219831c5935911d9be9.16",
      "lat": 22.496918,
      "lng": 88.360882,
      "name": "Radhagobind Temple "
    },
    "8687679117c94ccfb176cc05841f7788.16": {
      "guid": "8687679117c94ccfb176cc05841f7788.16",
      "isEx": true,
      "lat": 22.544435,
      "lng": 88.342477,
      "name": "Victoria Memorial Park"
    },
    "869ee8e34fe1497dacdeff268497d0a7.16": {
      "guid": "869ee8e34fe1497dacdeff268497d0a7.16",
      "lat": 22.943196,
      "lng": 88.461233,
      "name": "Mary Immaculate church"
    },
    "8723d64e040d41ba9934b7287c50392a.16": {
      "guid": "8723d64e040d41ba9934b7287c50392a.16",
      "lat": 22.629673,
      "lng": 88.445379,
      "name": "Bird headed lizard"
    },
    "87a4ab62383740e68932712f406b1194.16": {
      "guid": "87a4ab62383740e68932712f406b1194.16",
      "lat": 22.545811,
      "lng": 88.360849,
      "name": "Park Street Road of the Dead"
    },
    "87ab0c53e43c4e76811f36f86ef66f3d.16": {
      "guid": "87ab0c53e43c4e76811f36f86ef66f3d.16",
      "lat": 22.635432,
      "lng": 88.408934,
      "name": "Children's Park "
    },
    "87ad4890fb8341019e7d09af2c3f7eb0.16": {
      "guid": "87ad4890fb8341019e7d09af2c3f7eb0.16",
      "lat": 22.693242,
      "lng": 88.443142,
      "name": "Bust of Dr. Bidhan Chandra Roy"
    },
    "87edaf7bec9a4edd8c3989ec3c82c408.16": {
      "guid": "87edaf7bec9a4edd8c3989ec3c82c408.16",
      "lat": 22.734916,
      "lng": 88.38623,
      "name": "Durga Mandir"
    },
    "88040883a3ef417ab7a82866463f4fc7.16": {
      "guid": "88040883a3ef417ab7a82866463f4fc7.16",
      "lat": 22.51962,
      "lng": 88.323473,
      "name": "Shiv Temple Near D. H. Road"
    },
    "880c28eeb68b42e08949be657e53271e.16": {
      "guid": "880c28eeb68b42e08949be657e53271e.16",
      "lat": 22.578061,
      "lng": 88.286597,
      "name": "Chasir Math Kali Temple"
    },
    "882eb21003034aae84260ed9fb7c2341.16": {
      "guid": "882eb21003034aae84260ed9fb7c2341.16",
      "lat": 22.577838,
      "lng": 88.382728,
      "name": "Shiv Mondir"
    },
    "889ca74d451d4c218aa574328dfa660d.16": {
      "guid": "889ca74d451d4c218aa574328dfa660d.16",
      "lat": 22.600618,
      "lng": 88.370011,
      "name": "Statue "
    },
    "890e78cedb2c40e7b52671e4737d7939.16": {
      "guid": "890e78cedb2c40e7b52671e4737d7939.16",
      "lat": 22.515449,
      "lng": 88.336044,
      "name": "Kali Mata Temple"
    },
    "89712bc02b6e4684b975877378931a95.16": {
      "guid": "89712bc02b6e4684b975877378931a95.16",
      "lat": 22.592074,
      "lng": 88.391413,
      "name": "Dr. Bidhan Rai Statue"
    },
    "89a0adf897344732b05041f683c8170e.16": {
      "guid": "89a0adf897344732b05041f683c8170e.16",
      "lat": 22.503651,
      "lng": 88.339513,
      "name": "Tollygunge Mosque"
    },
    "89b9a47be1bb4df18e04319c4a8578f7.16": {
      "guid": "89b9a47be1bb4df18e04319c4a8578f7.16",
      "lat": 22.501174,
      "lng": 88.316967,
      "name": "Jagannath Temple"
    },
    "8af9e1c5189e401caeb1dc553396d8be.16": {
      "guid": "8af9e1c5189e401caeb1dc553396d8be.16",
      "lat": 22.561928,
      "lng": 88.324338,
      "name": "Bust of Lokmanya Bal Ganghadhar Tilak"
    },
    "8b23893125cd40dbab1b48e4f01ba127.16": {
      "guid": "8b23893125cd40dbab1b48e4f01ba127.16",
      "lat": 22.568525,
      "lng": 88.51415,
      "name": "Roadside Artwork At Shapoorji "
    },
    "8b4c7e2a7fd94508afc0e4e883e54af8.16": {
      "guid": "8b4c7e2a7fd94508afc0e4e883e54af8.16",
      "lat": 22.617698,
      "lng": 88.400553,
      "name": "Netaji Subhas chandra stachu"
    },
    "8b6a04857d9d403792b890b2c7bcead4.16": {
      "guid": "8b6a04857d9d403792b890b2c7bcead4.16",
      "lat": 22.683835,
      "lng": 88.419262,
      "name": "Chotofinga playground"
    },
    "8b84753346b44b8d81d966fa2e419d71.16": {
      "guid": "8b84753346b44b8d81d966fa2e419d71.16",
      "lat": 22.513856,
      "lng": 88.352,
      "name": "Small shiv temple"
    },
    "8bc60151a1f342feaadb6bf2df7d28fb.16": {
      "guid": "8bc60151a1f342feaadb6bf2df7d28fb.16",
      "lat": 22.59561,
      "lng": 88.359182,
      "name": "Netaji Wall Mural at B.K.Paul Park"
    },
    "8bd140aff8e049a6ac793f8b2ab1123b.16": {
      "guid": "8bd140aff8e049a6ac793f8b2ab1123b.16",
      "lat": 22.368529,
      "lng": 88.432024,
      "name": "Hanuman Temple "
    },
    "8c31b2080bc34f72b034ad597ab9a72a.16": {
      "guid": "8c31b2080bc34f72b034ad597ab9a72a.16",
      "isEx": true,
      "lat": 22.582755,
      "lng": 88.285841,
      "name": "Netaji Subhas Bose Bust"
    },
    "8c623c9ab77040da8300cbfbf58f084d.16": {
      "guid": "8c623c9ab77040da8300cbfbf58f084d.16",
      "lat": 22.759707,
      "lng": 88.514536,
      "name": "Temple of Lord Shiva and Kaali"
    },
    "8cdbc9822a3b41bca47dee762581af68.16": {
      "guid": "8cdbc9822a3b41bca47dee762581af68.16",
      "lat": 22.56052,
      "lng": 88.409824,
      "name": "W. B.  National University Of Juridical Science "
    },
    "8cde61ce25074cb98e9d6a1c565d4448.11": {
      "guid": "8cde61ce25074cb98e9d6a1c565d4448.11",
      "lat": 22.598904,
      "lng": 88.423095,
      "name": "AMP Baishakhi, Salt Lake"
    },
    "8cdfa50ab9534beb8ab842909b213545.16": {
      "guid": "8cdfa50ab9534beb8ab842909b213545.16",
      "lat": 22.58236,
      "lng": 88.319851,
      "name": "Bust of Rabindranath Tagore"
    },
    "8d2d5d8f6ebd40e1bf006fa0845b0831.16": {
      "guid": "8d2d5d8f6ebd40e1bf006fa0845b0831.16",
      "lat": 22.566406,
      "lng": 88.348719,
      "name": "Esplanade Mansion"
    },
    "8d653a0990a24b078f0b2eb7be5c85e5.16": {
      "guid": "8d653a0990a24b078f0b2eb7be5c85e5.16",
      "lat": 22.575994,
      "lng": 88.373296,
      "name": "Statue of Dr. Bidhan Chandra Roy"
    },
    "8d724ef0062946b1a0358fcf343a3c33.16": {
      "guid": "8d724ef0062946b1a0358fcf343a3c33.16",
      "lat": 22.508784,
      "lng": 88.306887,
      "name": "Parnasree post Office"
    },
    "8d7c4060e7f84655aa42c318344a2b81.16": {
      "guid": "8d7c4060e7f84655aa42c318344a2b81.16",
      "lat": 22.516133,
      "lng": 88.366683,
      "name": "Shiv Temple at Golpark"
    },
    "8d93dafae08d472c994a51c16b4cad5e.16": {
      "guid": "8d93dafae08d472c994a51c16b4cad5e.16",
      "lat": 22.623501,
      "lng": 88.353422,
      "name": "Deer Models @ Rangoli Mall"
    },
    "8dece1fd47b54924a635be644f806735.16": {
      "guid": "8dece1fd47b54924a635be644f806735.16",
      "lat": 22.893127,
      "lng": 88.425253,
      "name": "Naihati Football Stadium"
    },
    "8e05672361bf404dbda5d2e9ab2a0ff8.16": {
      "guid": "8e05672361bf404dbda5d2e9ab2a0ff8.16",
      "lat": 22.675313,
      "lng": 88.445456,
      "name": "Roadside Artwork Depicting Yoga"
    },
    "8e55335c087e4f6ca36b23a8c987104d.16": {
      "guid": "8e55335c087e4f6ca36b23a8c987104d.16",
      "lat": 22.442924,
      "lng": 88.430444,
      "name": "Sonarpur Junction"
    },
    "8e6d8a34679c41eb95d2607a2ad90687.16": {
      "guid": "8e6d8a34679c41eb95d2607a2ad90687.16",
      "lat": 22.594375,
      "lng": 88.385716,
      "name": "Shiv Mandir"
    },
    "8ea9bc499670441fa45aab16d84713f9.16": {
      "guid": "8ea9bc499670441fa45aab16d84713f9.16",
      "lat": 22.469279,
      "lng": 88.370578,
      "name": "Wall Art"
    },
    "8ef016d3defc4f73a67326c394cde799.16": {
      "guid": "8ef016d3defc4f73a67326c394cde799.16",
      "lat": 22.560614,
      "lng": 88.36697,
      "name": "Moula Ali Mazar"
    },
    "8fbc659254e340f2be7b48d8c20b3656.16": {
      "guid": "8fbc659254e340f2be7b48d8c20b3656.16",
      "lat": 22.508351,
      "lng": 88.366661,
      "name": "Madhusudhan Mancha Dhakuria Kolkata "
    },
    "901ff4fcfa9f49b681889714f34fedce.16": {
      "guid": "901ff4fcfa9f49b681889714f34fedce.16",
      "lat": 22.574785,
      "lng": 88.362998,
      "name": "Calcutta University"
    },
    "9140ceaf466344269236e6f9ca0d4d74.16": {
      "guid": "9140ceaf466344269236e6f9ca0d4d74.16",
      "lat": 22.931999,
      "lng": 88.431785,
      "name": "Notun palli park"
    },
    "916f61bc762c47e38ab844c6c04d4359.16": {
      "guid": "916f61bc762c47e38ab844c6c04d4359.16",
      "lat": 22.474083,
      "lng": 88.309689,
      "name": "Shiv Temple"
    },
    "9172f4814913474aa47fe1e16923930f.16": {
      "guid": "9172f4814913474aa47fe1e16923930f.16",
      "lat": 22.440063,
      "lng": 88.430863,
      "name": "Kali Temple"
    },
    "91af84e89f9a433996bcd4ec66297eaa.16": {
      "guid": "91af84e89f9a433996bcd4ec66297eaa.16",
      "lat": 22.934597,
      "lng": 88.451416,
      "name": "St. George's Church"
    },
    "91e46461a80c4ca6b193f2fee58a9ac8.16": {
      "guid": "91e46461a80c4ca6b193f2fee58a9ac8.16",
      "lat": 22.581423,
      "lng": 88.371569,
      "name": "Vidyasagar Smriti Mandir"
    },
    "9247f8969b5c42ffaed651cd24790d12.16": {
      "guid": "9247f8969b5c42ffaed651cd24790d12.16",
      "lat": 22.496088,
      "lng": 88.372572,
      "name": "Jadavpur University Gate 1"
    },
    "92a8b3fae8fa4fefb2ba453a2b658f0f.16": {
      "guid": "92a8b3fae8fa4fefb2ba453a2b658f0f.16",
      "isEx": true,
      "lat": 22.590837,
      "lng": 88.426851,
      "name": "Concept Devi"
    },
    "92f35281d463448fa44ab58e1c5f28be.16": {
      "guid": "92f35281d463448fa44ab58e1c5f28be.16",
      "lat": 22.423952,
      "lng": 88.418968,
      "name": "Nabarun Shangha Club"
    },
    "931e089cd8c14abfab3b83ef977447c4.16": {
      "guid": "931e089cd8c14abfab3b83ef977447c4.16",
      "lat": 22.568251,
      "lng": 88.356287,
      "name": "Designed Walls at Chandni Metro"
    },
    "9361aded2545487da622116515e977a0.16": {
      "guid": "9361aded2545487da622116515e977a0.16",
      "lat": 22.465784,
      "lng": 88.391016,
      "name": "Shahid Khudiram Metro Station "
    },
    "95c337ca07554dd78756d82b9f2f7be3.16": {
      "guid": "95c337ca07554dd78756d82b9f2f7be3.16",
      "lat": 22.692808,
      "lng": 88.464497,
      "name": "Water Fountain"
    },
    "9671461fb9bc4634bd02415240ab3356.16": {
      "guid": "9671461fb9bc4634bd02415240ab3356.16",
      "lat": 22.450961,
      "lng": 88.434686,
      "name": "Adi Yogi Shiv Mandir"
    },
    "968ca79c75044dcf8877b7c797b36235.16": {
      "guid": "968ca79c75044dcf8877b7c797b36235.16",
      "lat": 22.476236,
      "lng": 88.414903,
      "name": "Netaji Subhash Engineering College"
    },
    "96ab0723f4ec4e84a5f4708d63ded39a.16": {
      "guid": "96ab0723f4ec4e84a5f4708d63ded39a.16",
      "lat": 22.607438,
      "lng": 88.475545,
      "name": "Roadside Artwork "
    },
    "96ea9f944be64c94a4d9ba9389c639eb.16": {
      "guid": "96ea9f944be64c94a4d9ba9389c639eb.16",
      "lat": 22.584138,
      "lng": 88.308024,
      "name": "Shib Temple near Notun Rasta"
    },
    "9763cfecae684975b66f58cb5d478f34.16": {
      "guid": "9763cfecae684975b66f58cb5d478f34.16",
      "lat": 22.624236,
      "lng": 88.394313,
      "name": "Boro Kali Mandir"
    },
    "97fe3cf3c4f74fccad0ce2ed46e3fd3d.16": {
      "guid": "97fe3cf3c4f74fccad0ce2ed46e3fd3d.16",
      "lat": 22.569735,
      "lng": 88.345757,
      "name": "St John's Church"
    },
    "983dce2359b047dda3e3c80ba190ceaf.16": {
      "guid": "983dce2359b047dda3e3c80ba190ceaf.16",
      "lat": 22.884621,
      "lng": 88.413993,
      "name": "Buro Shib Mandir"
    },
    "9868b9af28c14ef8988644ae12390ef4.16": {
      "guid": "9868b9af28c14ef8988644ae12390ef4.16",
      "lat": 22.929145,
      "lng": 88.435798,
      "name": "Bramhin temple"
    },
    "986e053b99b04ef59342c291f3d6e49e.16": {
      "guid": "986e053b99b04ef59342c291f3d6e49e.16",
      "lat": 22.582613,
      "lng": 88.281801,
      "name": "Santragachi Junction Water Tower No. 2"
    },
    "98c1e371a73c4b05a709033a2390b2e5.16": {
      "guid": "98c1e371a73c4b05a709033a2390b2e5.16",
      "lat": 22.54565,
      "lng": 88.377159,
      "name": "Lokenath Baba Mandir"
    },
    "99925bda06f84f4ba09bdd14752ffdfc.16": {
      "guid": "99925bda06f84f4ba09bdd14752ffdfc.16",
      "lat": 22.854443,
      "lng": 88.369445,
      "name": "Bhasa Shahid Sarak Udan"
    },
    "99b1822133034138acc19c74d42abe0f.16": {
      "guid": "99b1822133034138acc19c74d42abe0f.16",
      "lat": 22.768756,
      "lng": 88.542071,
      "name": "Dattapukur post office "
    },
    "9a2f1dd78581465ea441e98f174a2137.16": {
      "guid": "9a2f1dd78581465ea441e98f174a2137.16",
      "lat": 22.507289,
      "lng": 88.349522,
      "name": "Maa Kali and Biswakarma Temple"
    },
    "9a44d9acb09e48ed8016c719740f4c93.16": {
      "guid": "9a44d9acb09e48ed8016c719740f4c93.16",
      "lat": 22.889214,
      "lng": 88.427178,
      "name": "Children Park"
    },
    "9aa45f33e78c43dc81f0c7281d2f4cc4.16": {
      "guid": "9aa45f33e78c43dc81f0c7281d2f4cc4.16",
      "lat": 22.501702,
      "lng": 88.345269,
      "name": "Mosque at Anwar Shah Road "
    },
    "9b093f124e7e4e71bb97261027f3a1d6.16": {
      "guid": "9b093f124e7e4e71bb97261027f3a1d6.16",
      "lat": 22.659947,
      "lng": 88.386169,
      "name": "Sri Sri Rokkha kali Mandir"
    },
    "9b426e9d680944f0980439d75583c8ad.16": {
      "guid": "9b426e9d680944f0980439d75583c8ad.16",
      "lat": 22.60187,
      "lng": 88.430548,
      "name": "Ancient Baba Temple"
    },
    "9b436c55f9ad46159fe46b5e442b5472.16": {
      "guid": "9b436c55f9ad46159fe46b5e442b5472.16",
      "lat": 22.89729,
      "lng": 88.410563,
      "name": "Abu Simble Temple's replica at Naihati Goalapara Park"
    },
    "9b4f647385d347009766858cb3050e19.16": {
      "guid": "9b4f647385d347009766858cb3050e19.16",
      "lat": 22.398112,
      "lng": 88.432996,
      "name": "Sri Sri Shani Mandir"
    },
    "9b6cadc26bee4041bd3370d0ee7f9e0a.16": {
      "guid": "9b6cadc26bee4041bd3370d0ee7f9e0a.16",
      "isEx": true,
      "lat": 22.541332,
      "lng": 88.36619,
      "name": "Park Circus Water Tank"
    },
    "9bf2e50a1caa47269594b0aa98b40718.16": {
      "guid": "9bf2e50a1caa47269594b0aa98b40718.16",
      "lat": 22.510272,
      "lng": 88.305544,
      "name": "Swami Vivekananda Statue"
    },
    "9c11e45c6e2746e69ce4f4bdfcacf1dc.16": {
      "guid": "9c11e45c6e2746e69ce4f4bdfcacf1dc.16",
      "lat": 22.484648,
      "lng": 88.380068,
      "name": "Tarun Sangha"
    },
    "9c4f6e6d549745c6807af5a823ce1a37.16": {
      "guid": "9c4f6e6d549745c6807af5a823ce1a37.16",
      "lat": 22.561667,
      "lng": 88.407654,
      "name": "Rabindranath Statue"
    },
    "9c50beb59a964383891e3019c4292b93.16": {
      "guid": "9c50beb59a964383891e3019c4292b93.16",
      "lat": 22.879686,
      "lng": 88.421648,
      "name": "Lord Biswa Karma Temple"
    },
    "9cacba8104b346479a05e75dacebf880.16": {
      "guid": "9cacba8104b346479a05e75dacebf880.16",
      "lat": 22.468956,
      "lng": 88.38671,
      "name": "Biplabi baghajatin abakha statue"
    },
    "9cacfb26768544cfa956def3762d0f63.16": {
      "guid": "9cacfb26768544cfa956def3762d0f63.16",
      "lat": 22.660632,
      "lng": 88.393187,
      "name": "Sri Sri Kalibari Debalaya"
    },