{"gyms":{"99925bda06f84f4ba09bdd14752ffdfc.16":{"guid":"99925bda06f84f4ba09bdd14752ffdfc.16","lat":22.854443,"lng":88.369445,"name":"Bhasa Shahid Sarak Udyan"},"f5055c41342e477594690417084cc4db.16":{"guid":"f5055c41342e477594690417084cc4db.16","lat":22.857347,"lng":88.368365,"name":"Chandannagar Church"},"22a25367cfd04856b122014cb59038e0.16":{"guid":"22a25367cfd04856b122014cb59038e0.16","lat":22.857045,"lng":88.369936,"name":"Chandannagar Strand"},"6c1ef67e0f5b414cb748a273b2d758f2.16":{"guid":"6c1ef67e0f5b414cb748a273b2d758f2.16","lat":22.857998,"lng":88.37472,"name":"Anil Singh Park Grand Entrance"},"25c460442ea844899a0496a98ab25819.16":{"guid":"25c460442ea844899a0496a98ab25819.16","lat":22.845702,"lng":88.346832,"name":"Mankundu Station"},"279962c307294b20bd93fd51549e927e.16":{"guid":"279962c307294b20bd93fd51549e927e.16","lat":22.883575,"lng":88.40038,"name":"Hooghly Mohsin College","isEx":true},"36ed287f54f14590b0dfe465703a4692.16":{"guid":"36ed287f54f14590b0dfe465703a4692.16","lat":22.888605,"lng":88.401989,"name":"Shiv mandir near post office"},"0af6164a47944dbc861b390ac94551d0.16":{"guid":"0af6164a47944dbc861b390ac94551d0.16","lat":22.918891,"lng":88.395072,"name":"Gate Of Bandel Church"},"3b9255546515426d83217b00adced30a.16":{"guid":"3b9255546515426d83217b00adced30a.16","lat":22.923706,"lng":88.378026,"name":"Bandel Railway Junction"},"aba175205a6e4c6ab434e1fa11c978b1.16":{"guid":"aba175205a6e4c6ab434e1fa11c978b1.16","lat":22.562234,"lng":88.323708,"name":"Lok Manya Bal Gangadhar Tilak Park "},"fa558451711f4484ad64f7adfb2956e9.16":{"guid":"fa558451711f4484ad64f7adfb2956e9.16","lat":22.568416,"lng":88.318947,"name":"Shibpur Public Library "},"5667dbe2bbc6455492d786437300e1f2.16":{"guid":"5667dbe2bbc6455492d786437300e1f2.16","lat":22.582661,"lng":88.338956,"name":"Howrah Water Supply"},"5780e17f92a44cae999a7df1e952f971.16":{"guid":"5780e17f92a44cae999a7df1e952f971.16","lat":22.657363,"lng":88.357777,"name":"Dakhineswar Water Supply"},"247ab5b2928c4773aa5d2cbd106f253c.16":{"guid":"247ab5b2928c4773aa5d2cbd106f253c.16","lat":22.65485,"lng":88.357518,"name":"Dakhsineswar Kali Temple"},"7df3c16110364221abf091f58a35aa51.12":{"guid":"7df3c16110364221abf091f58a35aa51.12","lat":22.655671,"lng":88.357736,"name":"Swami Vivekananda"},"6c64e8c8cf2a43c684093d2bf08d11dc.16":{"guid":"6c64e8c8cf2a43c684093d2bf08d11dc.16","lat":22.654058,"lng":88.362321,"name":"Dakhineshwar Station"},"5279f28bab194839917d975cd45a8d0d.16":{"guid":"5279f28bab194839917d975cd45a8d0d.16","lat":22.986122,"lng":88.447398,"name":"Central Library"},"060d37a185614e3fb528895772529758.16":{"guid":"060d37a185614e3fb528895772529758.16","lat":22.971152,"lng":88.463074,"name":"Bidhan Roy Statue in Kalyani","isEx":true},"de58181a93e0485aa03db65496493595.16":{"guid":"de58181a93e0485aa03db65496493595.16","lat":22.973264,"lng":88.455246,"name":"Hanuman Temple"},"ef2000b068794ca5afb44d48fcc5bcd3.16":{"guid":"ef2000b068794ca5afb44d48fcc5bcd3.16","lat":22.968006,"lng":88.456438,"name":"Ambedkar Statue Near NDRI","isEx":true},"e9776bb3d03c4044b2ec0b51a7132c13.16":{"guid":"e9776bb3d03c4044b2ec0b51a7132c13.16","lat":22.902323,"lng":88.415838,"name":"Shiv Mandir"},"7ab3dab5b91643179b5cd38f0a449ef9.16":{"guid":"7ab3dab5b91643179b5cd38f0a449ef9.16","lat":22.88664,"lng":88.417409,"name":"Naihati Railway Station"},"27a30f67642b48e5b67d3bbdbd3a523d.16":{"guid":"27a30f67642b48e5b67d3bbdbd3a523d.16","lat":22.86684,"lng":88.405586,"name":"Mural at Kankinara Railway Station"},"016a164e00914686929088096284f477.16":{"guid":"016a164e00914686929088096284f477.16","lat":22.867407,"lng":88.401583,"name":"Masjid Manbod Sardar"},"c65a3990388245fab2760f5b33de92d1.16":{"guid":"c65a3990388245fab2760f5b33de92d1.16","lat":22.836512,"lng":88.390836,"name":"Palli Shree Kali Mandir"},"02be314bafb7491db28af13987bb9d53.16":{"guid":"02be314bafb7491db28af13987bb9d53.16","lat":22.834523,"lng":88.383217,"name":"Shankarnarayan Bose"},"9d3724fb928444658d9f054c3a150d86.16":{"guid":"9d3724fb928444658d9f054c3a150d86.16","lat":22.83288,"lng":88.383229,"name":"Shyamnagar Borobari Durga Mandap"},"d3c02ef352994b7391e5bc4b343dcec5.16":{"guid":"d3c02ef352994b7391e5bc4b343dcec5.16","lat":22.830973,"lng":88.38257,"name":"Sri Sri Rokha Kali Mata Mandir"},"e1eb81c0fd944a4d9b851369e8d79fd6.16":{"guid":"e1eb81c0fd944a4d9b851369e8d79fd6.16","lat":22.829984,"lng":88.382066,"name":"Mulajor Bharatchandra Library Shyamnagar"},"9e91dac37b1f4de8adde0c3d92282be4.16":{"guid":"9e91dac37b1f4de8adde0c3d92282be4.16","lat":22.826753,"lng":88.378996,"name":"Siddheswari Kali Mandir "},"e4c63f2757b145859655a1f6d37b7a4f.16":{"guid":"e4c63f2757b145859655a1f6d37b7a4f.16","lat":22.82301,"lng":88.377613,"name":"Assembly of God Church Shyamnagar"},"a69ef5719e2049a184905c4f3c2fe9b5.16":{"guid":"a69ef5719e2049a184905c4f3c2fe9b5.16","lat":22.794867,"lng":88.334941,"name":"Shitala Mata Temple"},"2bb53fe5464b472dae9eda8c835c03f7.16":{"guid":"2bb53fe5464b472dae9eda8c835c03f7.16","lat":22.795583,"lng":88.331932,"name":"Baidyabati Station"},"ffc6aeb1d9a94e3aa741ead5a45a220e.16":{"guid":"ffc6aeb1d9a94e3aa741ead5a45a220e.16","lat":22.789116,"lng":88.325476,"name":"Bust Of Swami Vivekananda"},"7a86dec2908142e596f56e449f6f2c4d.16":{"guid":"7a86dec2908142e596f56e449f6f2c4d.16","lat":22.761336,"lng":88.352679,"name":"Jumbo Appu, Barrackpore ","isEx":true},"4a7edf6be01a461fbfac6495a06057e3.16":{"guid":"4a7edf6be01a461fbfac6495a06057e3.16","lat":22.76314,"lng":88.37446,"name":"Annanda Puri Kali Bari"},"2df8034b909a4d9d9de815db022d4f45.16":{"guid":"2df8034b909a4d9d9de815db022d4f45.16","lat":22.726206,"lng":88.343408,"name":"Rishra Railway Station"},"cb0ae516a8c14827a661f7d7a1d4fa9c.16":{"guid":"cb0ae516a8c14827a661f7d7a1d4fa9c.16","lat":22.727624,"lng":88.382038,"name":"Rahara Post Office"},"ab31a60cb3b4461fb2f51fecc96be178.16":{"guid":"ab31a60cb3b4461fb2f51fecc96be178.16","lat":22.724545,"lng":88.37809,"name":"Shani And Kali Temple"},"87edaf7bec9a4edd8c3989ec3c82c408.16":{"guid":"87edaf7bec9a4edd8c3989ec3c82c408.16","lat":22.734916,"lng":88.38623,"name":"Durga Mandir"},"535df9c6715d46aa93aa5e198aeb8086.16":{"guid":"535df9c6715d46aa93aa5e198aeb8086.16","lat":22.725538,"lng":88.38703,"name":"Durga Mandir"},"b685dc25e1fd4dcdbb829a3471149f04.16":{"guid":"b685dc25e1fd4dcdbb829a3471149f04.16","lat":22.72452,"lng":88.386881,"name":"Olaichandi Mandir"},"a408b991d1ae4349a6ce168a281aedbc.16":{"guid":"a408b991d1ae4349a6ce168a281aedbc.16","lat":22.722199,"lng":88.388826,"name":"Khardaha Water Tank"},"34d4fd9ef8de4d6cab4547fae5f41a35.16":{"guid":"34d4fd9ef8de4d6cab4547fae5f41a35.16","lat":22.723964,"lng":88.384233,"name":"Kali And Shiv Temple"},"f7b05db6fe124dc59e65e6672c1e0aa0.16":{"guid":"f7b05db6fe124dc59e65e6672c1e0aa0.16","lat":22.717636,"lng":88.384209,"name":"Shiv Mandir"},"be98d9fd34a94eef8fcaffc10b59e178.16":{"guid":"be98d9fd34a94eef8fcaffc10b59e178.16","lat":22.71892,"lng":88.39045,"name":"Kalyan Nagar Mandir"},"70dec9ce413a4a2896dffb543ac3cafe.16":{"guid":"70dec9ce413a4a2896dffb543ac3cafe.16","lat":22.710106,"lng":88.374297,"name":"G.T.S Tower, Sodepur"},"cfadb08111114081aa60adf56bdb9679.16":{"guid":"cfadb08111114081aa60adf56bdb9679.16","lat":22.701237,"lng":88.342547,"name":"Konnagar Rail Station"},"c8a334fc56e24aecbcca824b2f85caf8.16":{"guid":"c8a334fc56e24aecbcca824b2f85caf8.16","lat":22.661732,"lng":88.38929,"name":"Belgharia Railway Station"},"9cacfb26768544cfa956def3762d0f63.16":{"guid":"9cacfb26768544cfa956def3762d0f63.16","lat":22.660632,"lng":88.393187,"name":"Sri Sri Kalibari Debalaya"},"c0f81dedc8954138b50818d1463a6eda.16":{"guid":"c0f81dedc8954138b50818d1463a6eda.16","lat":22.658766,"lng":88.392845,"name":"Maayer Mandir"},"1084c364a0bb4c6e8fa9d1d708e78013.16":{"guid":"1084c364a0bb4c6e8fa9d1d708e78013.16","lat":22.66048,"lng":88.377082,"name":"Temple On BT Road"},"6c2ea1e3e8784507ab10940af4546d53.16":{"guid":"6c2ea1e3e8784507ab10940af4546d53.16","lat":22.654391,"lng":88.340291,"name":"Bally Railway Junction"},"50a72ee4a1e148198072f985a7832ba9.16":{"guid":"50a72ee4a1e148198072f985a7832ba9.16","lat":22.632228,"lng":88.356531,"name":"Ramakrishna Temple Belur Math"},"8375892ac0cf4f75a7c11d9485f1a988.16":{"guid":"8375892ac0cf4f75a7c11d9485f1a988.16","lat":22.630834,"lng":88.354314,"name":"Belur math"},"6ed7c71b0c9c41ceb2ebad50f1f5396e.16":{"guid":"6ed7c71b0c9c41ceb2ebad50f1f5396e.16","lat":22.631545,"lng":88.352686,"name":"Ramakrishna Mission Saradapith"},"201651418a194520b517c21131eb4736.16":{"guid":"201651418a194520b517c21131eb4736.16","lat":22.621473,"lng":88.392684,"name":"Dumdum Station Platform 4"},"10d92a40464d45f0b81d63902338dc8c.16":{"guid":"10d92a40464d45f0b81d63902338dc8c.16","lat":22.621022,"lng":88.392275,"name":"Swami Vivekanand Chowk"},"ae63cae975544be3a991a73917c3e772.16":{"guid":"ae63cae975544be3a991a73917c3e772.16","lat":22.615591,"lng":88.391183,"name":"Birpara Bireshwar Mandir"},"4668be0d40324f21b8c1d97fe7611084.16":{"guid":"4668be0d40324f21b8c1d97fe7611084.16","lat":22.620509,"lng":88.397037,"name":"Sri Sri Shiva Mandir"},"2194b25522264d7c8e201d4754bfb804.16":{"guid":"2194b25522264d7c8e201d4754bfb804.16","lat":22.621259,"lng":88.402549,"name":"Dumdum Hanuman Mandir"},"2662dc3141a642f3b7f531aed9e00e83.16":{"guid":"2662dc3141a642f3b7f531aed9e00e83.16","lat":22.625855,"lng":88.416115,"name":"Dum Dum Children's Park"},"6c91c484144d4a9a83e0105e5c15a1cb.16":{"guid":"6c91c484144d4a9a83e0105e5c15a1cb.16","lat":22.631108,"lng":88.42341,"name":"Afghan War Memorial"},"169f77896d994ba0a932e237fac428b0.16":{"guid":"169f77896d994ba0a932e237fac428b0.16","lat":22.634834,"lng":88.417509,"name":"Dum Dum Town Hall "},"38a5fd81aa8142a58eca76fb1947f023.16":{"guid":"38a5fd81aa8142a58eca76fb1947f023.16","lat":22.632749,"lng":88.414534,"name":"Brahmasthan Hanuman Mandir"},"40d1567298d14c3caf0be84bb5b821e0.16":{"guid":"40d1567298d14c3caf0be84bb5b821e0.16","lat":22.635901,"lng":88.41181,"name":"Dumdum Cant Station"},"522e7ebe8643412f914bfdbdcb0f9545.16":{"guid":"522e7ebe8643412f914bfdbdcb0f9545.16","lat":22.635961,"lng":88.411043,"name":"সত্যনারায়ণ মন্দির।"},"c79fd8c2f468487caadc120101b4b538.16":{"guid":"c79fd8c2f468487caadc120101b4b538.16","lat":22.640304,"lng":88.408409,"name":"Children's Park Natun Bazar"},"87ab0c53e43c4e76811f36f86ef66f3d.16":{"guid":"87ab0c53e43c4e76811f36f86ef66f3d.16","lat":22.635432,"lng":88.408934,"name":"Children's Park "},"c6a13f5ab16347f29efeed2d8b6acbf4.16":{"guid":"c6a13f5ab16347f29efeed2d8b6acbf4.16","lat":22.611303,"lng":88.438183,"name":"Jyangra Water Tank"},"f1cb1b4e05f9492fbf1ef089b94f4253.16":{"guid":"f1cb1b4e05f9492fbf1ef089b94f4253.16","lat":22.618422,"lng":88.431775,"name":"Statue of Hanuman"},"5562deeb4c454b5499b7d9882a799afb.16":{"guid":"5562deeb4c454b5499b7d9882a799afb.16","lat":22.642007,"lng":88.430993,"name":"Shani Kali Mandir"},"dfab252832794ab99aa9ead7234eb76e.16":{"guid":"dfab252832794ab99aa9ead7234eb76e.16","lat":22.642872,"lng":88.431452,"name":"Airport Kali Mandir"},"31567f569dbb4d99854b8c3bd44b182d.16":{"guid":"31567f569dbb4d99854b8c3bd44b182d.16","lat":22.641824,"lng":88.439376,"name":"3D Durga"},"0dd135911032458f826f36e61f8a0fb6.16":{"guid":"0dd135911032458f826f36e61f8a0fb6.16","lat":22.642836,"lng":88.438807,"name":"Netaji Subash Chandra Bose International Airport"},"c2d66378530942b48c6d78d4ed39cdbc.16":{"guid":"c2d66378530942b48c6d78d4ed39cdbc.16","lat":22.643103,"lng":88.438772,"name":"Subhash Chandra Bose Airport"},"a1203f44f96548d687edf3ebf2d20569.16":{"guid":"a1203f44f96548d687edf3ebf2d20569.16","lat":22.648357,"lng":88.439411,"name":"Fountain Pot"},"c151a751b2b641eaaee99273baa1f399.16":{"guid":"c151a751b2b641eaaee99273baa1f399.16","lat":22.663605,"lng":88.425119,"name":"Bust Of Dr. Bidhan Chandra Roy "},"c3eeda70b28e4f1fb4395b23373a34c7.16":{"guid":"c3eeda70b28e4f1fb4395b23373a34c7.16","lat":22.663298,"lng":88.427307,"name":"Shani Temple Near Birati Station "},"8e05672361bf404dbda5d2e9ab2a0ff8.16":{"guid":"8e05672361bf404dbda5d2e9ab2a0ff8.16","lat":22.675313,"lng":88.445456,"name":"Roadside Artwork Depicting Yoga"},"3b164423c4fa4efdaef3a90d24ae915e.16":{"guid":"3b164423c4fa4efdaef3a90d24ae915e.16","lat":22.679264,"lng":88.449153,"name":"3 Men"},"1e09cb9ccf7b46fe8566cf890ca6b8ce.16":{"guid":"1e09cb9ccf7b46fe8566cf890ca6b8ce.16","lat":22.680125,"lng":88.453806,"name":"Small Roadside Temple "},"c5504d528bff4dc98db02366bba9d32b.16":{"guid":"c5504d528bff4dc98db02366bba9d32b.16","lat":22.673195,"lng":88.45454,"name":"Roadside Statue Of Owl"},"cba3edc6b7ae49a6b0dbdbae689cf6b8.16":{"guid":"cba3edc6b7ae49a6b0dbdbae689cf6b8.16","lat":22.672427,"lng":88.455567,"name":"Sri Sri Batkali Mandir "},"87ad4890fb8341019e7d09af2c3f7eb0.16":{"guid":"87ad4890fb8341019e7d09af2c3f7eb0.16","lat":22.693242,"lng":88.443142,"name":"Bust of Dr. Bidhan Chandra Roy"},"601907405e9a4d3daffd237d4e2b6c6e.16":{"guid":"601907405e9a4d3daffd237d4e2b6c6e.16","lat":22.69674,"lng":88.44196,"name":"Maa Tara Shakti Temple"},"535fdb75076a480d9d66b771f49c2599.16":{"guid":"535fdb75076a480d9d66b771f49c2599.16","lat":22.687243,"lng":88.454749,"name":"Nabarup Community Library"},"d46fe860e0f44c63b2ca00d8146bcef7.16":{"guid":"d46fe860e0f44c63b2ca00d8146bcef7.16","lat":22.694561,"lng":88.45306,"name":"Madhyamgram Station"},"c3ed92e66bc2434d9131c0b95333506c.16":{"guid":"c3ed92e66bc2434d9131c0b95333506c.16","lat":22.695933,"lng":88.45712,"name":"Small Shiv Mandir Near Debigarh"},"c479087f09e04a6ba62c3a988fb215d6.16":{"guid":"c479087f09e04a6ba62c3a988fb215d6.16","lat":22.703595,"lng":88.461871,"name":"Sadhan Dey Shishu Uddyan"},"09bf300c50f4443389971a72e28abac9.16":{"guid":"09bf300c50f4443389971a72e28abac9.16","lat":22.696748,"lng":88.462528,"name":"Bust of Sukanta Bhattacharyya"},"3a51766f33074cd2ad2c819a68785124.16":{"guid":"3a51766f33074cd2ad2c819a68785124.16","lat":22.692651,"lng":88.45674,"name":"Vidyasagar Vidyapith"},"0ff4fdbb947f4b88beafe356fbdb753b.16":{"guid":"0ff4fdbb947f4b88beafe356fbdb753b.16","lat":22.688967,"lng":88.456961,"name":"Trishakti Temple"},"762f8699a16644389a275629444c8cc0.16":{"guid":"762f8699a16644389a275629444c8cc0.16","lat":22.687916,"lng":88.461236,"name":"Small Mandir Of Lord Shiva"},"95c337ca07554dd78756d82b9f2f7be3.16":{"guid":"95c337ca07554dd78756d82b9f2f7be3.16","lat":22.692808,"lng":88.464497,"name":"Water Fountain"},"19fc8218c55d44989cbedf411798b471.16":{"guid":"19fc8218c55d44989cbedf411798b471.16","lat":22.693394,"lng":88.464682,"name":"Ramakrishna Vivekananda Sebashram"},"0639e972333146df898e412b7d5e7076.16":{"guid":"0639e972333146df898e412b7d5e7076.16","lat":22.693182,"lng":88.466355,"name":"Small Shiva Temple"},"a0dfb3ea677b4df285fe077940eb6225.16":{"guid":"a0dfb3ea677b4df285fe077940eb6225.16","lat":22.69303,"lng":88.472102,"name":"Vivekananda Nagar Sishu Udyan"},"20d1c96846624a4ab912daca7bca1701.16":{"guid":"20d1c96846624a4ab912daca7bca1701.16","lat":22.692162,"lng":88.472898,"name":"Shiva Temple "},"2695ca052c3142ce9f2adc4d48fb20b0.16":{"guid":"2695ca052c3142ce9f2adc4d48fb20b0.16","lat":22.686724,"lng":88.472415,"name":"Goddess Kali Temple "},"77fc9389409e49709d7dc55e6e4428b7.16":{"guid":"77fc9389409e49709d7dc55e6e4428b7.16","lat":22.695992,"lng":88.466029,"name":"Small Bholanath Temple"},"384fff36104e40228fb94265b35add9c.16":{"guid":"384fff36104e40228fb94265b35add9c.16","lat":22.704936,"lng":88.466743,"name":"Udayrajpur Sishu Uddyan"},"7f45c752eed246faac5fb2be2bce1270.16":{"guid":"7f45c752eed246faac5fb2be2bce1270.16","lat":22.710324,"lng":88.468609,"name":"Hridaypur Jame Masjid "},"20925363a17a44b98b49d0dce07abd74.16":{"guid":"20925363a17a44b98b49d0dce07abd74.16","lat":22.710542,"lng":88.469605,"name":"Hridaypur Railway Station "},"eac5e852abfe457c9f4338b32fb72137.16":{"guid":"eac5e852abfe457c9f4338b32fb72137.16","lat":22.723194,"lng":88.478562,"name":"Swami Vivekananda's Statue"},"621704b2ff024b2f9893338e9870645d.16":{"guid":"621704b2ff024b2f9893338e9870645d.16","lat":22.724025,"lng":88.483801,"name":"Barasat Junction "},"f2505f8492434a9a88a512ee0438cf9f.16":{"guid":"f2505f8492434a9a88a512ee0438cf9f.16","lat":22.608224,"lng":88.466394,"name":"The River Mural","isEx":true},"3d0ee6bad2e041fb819a85aefca2b61a.16":{"guid":"3d0ee6bad2e041fb819a85aefca2b61a.16","lat":22.607428,"lng":88.467249,"name":"Masks Of Countries","isEx":true},"a68081ddefaf434ba05c1bb33c195d55.16":{"guid":"a68081ddefaf434ba05c1bb33c195d55.16","lat":22.605403,"lng":88.467927,"name":"Center Of Adda Zone","isEx":true},"3851a213111e4597bb48138845e5e1bc.16":{"guid":"3851a213111e4597bb48138845e5e1bc.16","lat":22.602662,"lng":88.468488,"name":"The Sitafal Bin","isEx":true},"96ab0723f4ec4e84a5f4708d63ded39a.16":{"guid":"96ab0723f4ec4e84a5f4708d63ded39a.16","lat":22.607438,"lng":88.475545,"name":"Roadside Artwork "},"a52d55e6af3949ae9d722ce63102028a.16":{"guid":"a52d55e6af3949ae9d722ce63102028a.16","lat":22.599327,"lng":88.470729,"name":"Running Coach At Eco Park ","isEx":true},"57f29fb18be5446bb4973d99e597cf32.16":{"guid":"57f29fb18be5446bb4973d99e597cf32.16","lat":22.594989,"lng":88.472415,"name":"Eco Park Murals","isEx":true},"c6c9d64fce0140f98af50577a795fcdf.16":{"guid":"c6c9d64fce0140f98af50577a795fcdf.16","lat":22.58582,"lng":88.490543,"name":"3 Friends Hangout at Ecospace"},"efcff67d5d614c4595282abde985a748.16":{"guid":"efcff67d5d614c4595282abde985a748.16","lat":22.573901,"lng":88.480854,"name":"Infospace Mural - the Mother"},"2ad7dbc68de3484aae115f2dbac96aa4.16":{"guid":"2ad7dbc68de3484aae115f2dbac96aa4.16","lat":22.562611,"lng":88.464472,"name":"Aquatica Water Theme Park"},"f563bebf973a49f093d0e7492c14f912.16":{"guid":"f563bebf973a49f093d0e7492c14f912.16","lat":22.576667,"lng":88.454051,"name":"NBCC Park"},"117fdfa92aef43f090647cc7aba2710c.16":{"guid":"117fdfa92aef43f090647cc7aba2710c.16","lat":22.58209,"lng":88.453043,"name":"Road Art","isEx":true},"8310745024274a44accddb3b2bcc6f04.16":{"guid":"8310745024274a44accddb3b2bcc6f04.16","lat":22.581576,"lng":88.458858,"name":"Clock Tower"},"ed3c6d0f919945fd91b37a01ed7d3422.16":{"guid":"ed3c6d0f919945fd91b37a01ed7d3422.16","lat":22.580364,"lng":88.463583,"name":"Road Art 2 at New Town","isEx":true},"ac83f417bd8446a6b7570914230082fd.16":{"guid":"ac83f417bd8446a6b7570914230082fd.16","lat":22.58154,"lng":88.448342,"name":"Bengali Calligraphy At Nazrul Tirtha"},"56d15769bc5e4a36b0fe50d8b0725c42.16":{"guid":"56d15769bc5e4a36b0fe50d8b0725c42.16","lat":22.585412,"lng":88.437709,"name":"Emmanuel Church"},"bb17dc29c23d4362a66b3f11ec533ad5.16":{"guid":"bb17dc29c23d4362a66b3f11ec533ad5.16","lat":22.567974,"lng":88.432553,"name":"Netaji Subhas Open University"},"7208ff6a462442c8af7ff2fadea40eee.16":{"guid":"7208ff6a462442c8af7ff2fadea40eee.16","lat":22.572262,"lng":88.426634,"name":"Institute of Arts Gate 1 ( Roop Kala Kendra) "},"435e8b0ca9b84008a5190cc55bbf39c7.16":{"guid":"435e8b0ca9b84008a5190cc55bbf39c7.16","lat":22.576605,"lng":88.430257,"name":"Triangular Pillar"},"ff67dcf5b751435fb7239525981e7f5e.16":{"guid":"ff67dcf5b751435fb7239525981e7f5e.16","lat":22.571646,"lng":88.421118,"name":"Nicco Park Water Fountain","isEx":true},"1773ab9d9aa24ebba63509014ed5d7f0.16":{"guid":"1773ab9d9aa24ebba63509014ed5d7f0.16","lat":22.569195,"lng":88.420959,"name":"MIG-21 Replica Statue","isEx":true},"4a849104512a41dca45d15588122e385.16":{"guid":"4a849104512a41dca45d15588122e385.16","lat":22.559658,"lng":88.415493,"name":"Sukanta Nagar Children's Park"},"14afd0349b324bff9dab15855cead2db.16":{"guid":"14afd0349b324bff9dab15855cead2db.16","lat":22.556388,"lng":88.415703,"name":"Buro Baba Mandir"},"a78432f55d2843c494e3850dd4f1581b.16":{"guid":"a78432f55d2843c494e3850dd4f1581b.16","lat":22.55786,"lng":88.411327,"name":"Beliaghata Crossing"},"ef99a4d47aec4e909f128e6a895959eb.16":{"guid":"ef99a4d47aec4e909f128e6a895959eb.16","lat":22.555194,"lng":88.406215,"name":"Metropolitan Sani Mandir"},"8cdbc9822a3b41bca47dee762581af68.16":{"guid":"8cdbc9822a3b41bca47dee762581af68.16","lat":22.56052,"lng":88.409824,"name":"W. B.  National University Of Juridical Science "},"9c4f6e6d549745c6807af5a823ce1a37.16":{"guid":"9c4f6e6d549745c6807af5a823ce1a37.16","lat":22.561667,"lng":88.407654,"name":"Rabindranath Statue"},"b8c4c5fd74954611b0148a15c44cf544.16":{"guid":"b8c4c5fd74954611b0148a15c44cf544.16","lat":22.561557,"lng":88.40318,"name":"Dancing Lady Near Jora Mandir"},"55d8745a79e44227afc295870fffcb78.16":{"guid":"55d8745a79e44227afc295870fffcb78.16","lat":22.561674,"lng":88.402104,"name":"Kali Maa Mural"},"7eb97c183c254fc586193b167545ba18.16":{"guid":"7eb97c183c254fc586193b167545ba18.16","lat":22.564913,"lng":88.403616,"name":"Bot Tala Kalimandir "},"0413a9f9e6aa4e2584ebc96666d490e2.16":{"guid":"0413a9f9e6aa4e2584ebc96666d490e2.16","lat":22.568963,"lng":88.41011,"name":"Salt Lake Stadium","isEx":true},"65933f544e5d4ac1a6e169d0d4785a16.16":{"guid":"65933f544e5d4ac1a6e169d0d4785a16.16","lat":22.580925,"lng":88.412134,"name":"Tank No 11"},"b6a858d7d1b2438d9cdc6376c5316198.16":{"guid":"b6a858d7d1b2438d9cdc6376c5316198.16","lat":22.573132,"lng":88.412889,"name":"Woman and Child"},"f64b6b339227446d8ef9e99ace501b4f.16":{"guid":"f64b6b339227446d8ef9e99ace501b4f.16","lat":22.580752,"lng":88.421314,"name":"Senior Citizen Park"},"38ebe1dd2b744a6693570856b0e899da.16":{"guid":"38ebe1dd2b744a6693570856b0e899da.16","lat":22.582584,"lng":88.42383,"name":"Krishna Mandir"},"a63f231c5a4e450fbc1852448c000869.16":{"guid":"a63f231c5a4e450fbc1852448c000869.16","lat":22.583906,"lng":88.416902,"name":"Banabitan Play Arena Plaque","isEx":true},"50e5c9b564b2424abccb867a451f3260.16":{"guid":"50e5c9b564b2424abccb867a451f3260.16","lat":22.587737,"lng":88.419536,"name":"Dhaki Mural","isEx":true},"6b172341dff648f5a7359fa4e1d9e2c4.16":{"guid":"6b172341dff648f5a7359fa4e1d9e2c4.16","lat":22.585012,"lng":88.411943,"name":"Swami Vivekanada Park"},"21aa0bb29206467a9f415b5ecc99d87a.11":{"guid":"21aa0bb29206467a9f415b5ecc99d87a.11","lat":22.587829,"lng":88.408424,"name":"City Center, Salt Lake"},"d84bcb9e7fbb43c99bcf4a569fa0093d.16":{"guid":"d84bcb9e7fbb43c99bcf4a569fa0093d.16","lat":22.58831,"lng":88.409666,"name":"Lady with a Conch"},"1c2b1ad364114714895cd9a28e04d603.16":{"guid":"1c2b1ad364114714895cd9a28e04d603.16","lat":22.591976,"lng":88.403327,"name":"Kolkakoli Park Entrance ","isEx":true},"827a55586535463bab1196fa8f41e52d.16":{"guid":"827a55586535463bab1196fa8f41e52d.16","lat":22.594805,"lng":88.407962,"name":"BD Block Park","isEx":true},"09a8f0f14b5b48128699c8618856f381.16":{"guid":"09a8f0f14b5b48128699c8618856f381.16","lat":22.597602,"lng":88.40448,"name":"DURGA MA IDOL","isEx":true},"3de0676d30fb42c595a1dcf3282ac5d8.16":{"guid":"3de0676d30fb42c595a1dcf3282ac5d8.16","lat":22.594395,"lng":88.413314,"name":"The Gorilla"},"1c81a4acd5774687a89ff401147ee19d.12":{"guid":"1c81a4acd5774687a89ff401147ee19d.12","lat":22.589208,"lng":88.419545,"name":"Bidhan Chandra Roy"},"f4911ef517ad464584e2205119f714dc.16":{"guid":"f4911ef517ad464584e2205119f714dc.16","lat":22.588863,"lng":88.41996,"name":"Carved Rock"},"92a8b3fae8fa4fefb2ba453a2b658f0f.16":{"guid":"92a8b3fae8fa4fefb2ba453a2b658f0f.16","lat":22.590837,"lng":88.426851,"name":"Concept Devi","isEx":true},"f689678d6b3a4062aaefd52f5188807b.16":{"guid":"f689678d6b3a4062aaefd52f5188807b.16","lat":22.591089,"lng":88.433669,"name":"Buddhist Temple"},"fe54b24f738e4573bce10079eeeb4e14.16":{"guid":"fe54b24f738e4573bce10079eeeb4e14.16","lat":22.590657,"lng":88.43212,"name":"Shiv Kali"},"b3c1e03f1fdf4abb8682d2c56b8c72b2.16":{"guid":"b3c1e03f1fdf4abb8682d2c56b8c72b2.16","lat":22.600277,"lng":88.432565,"name":"Bust of Vivekananda"},"9b426e9d680944f0980439d75583c8ad.16":{"guid":"9b426e9d680944f0980439d75583c8ad.16","lat":22.60187,"lng":88.430548,"name":"Ancient Baba Temple"},"25f630294fc04b40a503df9e7300e687.16":{"guid":"25f630294fc04b40a503df9e7300e687.16","lat":22.59607,"lng":88.424457,"name":"Tank No 7"},"8cde61ce25074cb98e9d6a1c565d4448.11":{"guid":"8cde61ce25074cb98e9d6a1c565d4448.11","lat":22.598904,"lng":88.423095,"name":"AMP Baishakhi, Salt Lake"},"f3c2f50c02364bcfa51054d4588d39eb.16":{"guid":"f3c2f50c02364bcfa51054d4588d39eb.16","lat":22.60135,"lng":88.423223,"name":"Bust Of Acharya Jagdish Chandra Basu"},"483e35811bfa44549c7afa7c9602be31.16":{"guid":"483e35811bfa44549c7afa7c9602be31.16","lat":22.609546,"lng":88.416352,"name":"Krishnapur Upanagar Kali Mandir, Dum Dum Park"},"69f1bc663c4b4cb187a298f3aa714c17.16":{"guid":"69f1bc663c4b4cb187a298f3aa714c17.16","lat":22.60357,"lng":88.411815,"name":"Dancing Gods "},"71e3d37996a14effbc075c3241997076.16":{"guid":"71e3d37996a14effbc075c3241997076.16","lat":22.602412,"lng":88.409584,"name":"The Wild Bull"},"feccb023a967423e841390dcb8fee24f.16":{"guid":"feccb023a967423e841390dcb8fee24f.16","lat":22.600754,"lng":88.406595,"name":"Vivekananda Children's Park"},"4318ae83ed424c838542af7ad9c8e99a.16":{"guid":"4318ae83ed424c838542af7ad9c8e99a.16","lat":22.555337,"lng":88.33116,"name":"James Princep Memorial","isEx":true},"50d714bf20f3499c8136ae832fe972ac.16":{"guid":"50d714bf20f3499c8136ae832fe972ac.16","lat":22.547182,"lng":88.342932,"name":"Royal Lions","isEx":true},"8687679117c94ccfb176cc05841f7788.16":{"guid":"8687679117c94ccfb176cc05841f7788.16","lat":22.544435,"lng":88.342477,"name":"Victoria Memorial Park","isEx":true},"a9a5249a5d814ba59c9f804bc301cc98.12":{"guid":"a9a5249a5d814ba59c9f804bc301cc98.12","lat":22.545736,"lng":88.342566,"name":"Victoria Memorial","isEx":true},"daab1ddeb4c345be9e0eb5104b21cce7.16":{"guid":"daab1ddeb4c345be9e0eb5104b21cce7.16","lat":22.542261,"lng":88.345402,"name":"NANDAN West Bengal Film Centre","isEx":true},"83a4c861675e4ac1afcd4cc6e2563167.16":{"guid":"83a4c861675e4ac1afcd4cc6e2563167.16","lat":22.545547,"lng":88.347034,"name":"M P Birla Planetorium","isEx":true},"1d31e4e3c0134d019e2eaa2754eb09d8.16":{"guid":"1d31e4e3c0134d019e2eaa2754eb09d8.16","lat":22.546857,"lng":88.347467,"name":"ITC Park Graffiti","isEx":true},"7a72d20a00154759b29458edecd9f93c.16":{"guid":"7a72d20a00154759b29458edecd9f93c.16","lat":22.547297,"lng":88.34339,"name":"The Pillar of Faith","isEx":true},"c2b4d0e0850148349828623af3ed9739.16":{"guid":"c2b4d0e0850148349828623af3ed9739.16","lat":22.549339,"lng":88.349128,"name":"Maidan Metro Station"},"3962ac3b18124f8897d6e5327a8e3cab.16":{"guid":"3962ac3b18124f8897d6e5327a8e3cab.16","lat":22.552804,"lng":88.352532,"name":"Flurys"},"df50296191da491ba9a09368c8590869.16":{"guid":"df50296191da491ba9a09368c8590869.16","lat":22.554948,"lng":88.349772,"name":"Pandit Nerhu Memorial","isEx":true},"6531af9062dc4d3a896047eef87e1967.11":{"guid":"6531af9062dc4d3a896047eef87e1967.11","lat":22.55961,"lng":88.352923,"name":"New Market , Esplanade"},"b71a2f3b1844438c83a26819fecaca8e.16":{"guid":"b71a2f3b1844438c83a26819fecaca8e.16","lat":22.560695,"lng":88.352115,"name":"Shreeram Arcade"},"799f7824f1554836b0f91ad7fb31af2f.16":{"guid":"799f7824f1554836b0f91ad7fb31af2f.16","lat":22.56357,"lng":88.343826,"name":"The Cricket Association Of Bengal"},"fc44f7bb5cbb4302a7b8a336eda86eab.16":{"guid":"fc44f7bb5cbb4302a7b8a336eda86eab.16","lat":22.563119,"lng":88.347668,"name":"Shaheed Matengini Hajra","isEx":true},"b5529ca69c6449508d56ff14ede833be.12":{"guid":"b5529ca69c6449508d56ff14ede833be.12","lat":22.564244,"lng":88.347544,"name":"netaji  statue red road"},"135a1a668b124434b31a5b243d69a0a2.16":{"guid":"135a1a668b124434b31a5b243d69a0a2.16","lat":22.548751,"lng":88.357872,"name":"Seventh Day Adventist Church"},"87a4ab62383740e68932712f406b1194.16":{"guid":"87a4ab62383740e68932712f406b1194.16","lat":22.545811,"lng":88.360849,"name":"Park Street Road of the Dead"},"1cd4fe31d7af44aeba46cf4ad8d47de8.16":{"guid":"1cd4fe31d7af44aeba46cf4ad8d47de8.16","lat":22.547713,"lng":88.362167,"name":"L.C.Rd Cemetary "},"9b6cadc26bee4041bd3370d0ee7f9e0a.16":{"guid":"9b6cadc26bee4041bd3370d0ee7f9e0a.16","lat":22.541332,"lng":88.36619,"name":"Park Circus Water Tank","isEx":true},"148f74787824433693727cdb37bba0af.16":{"guid":"148f74787824433693727cdb37bba0af.16","lat":22.552496,"lng":88.363427,"name":"Blessed Mother Teresa"},"74ca293af5414cafa85ff3c988744f66.16":{"guid":"74ca293af5414cafa85ff3c988744f66.16","lat":22.554199,"lng":88.359022,"name":"Ripon Street Masjid"},"19cbef6393d44b6cadf8784a5bef2477.16":{"guid":"19cbef6393d44b6cadf8784a5bef2477.16","lat":22.556072,"lng":88.358839,"name":"Pentecostal Church"},"8ef016d3defc4f73a67326c394cde799.16":{"guid":"8ef016d3defc4f73a67326c394cde799.16","lat":22.560614,"lng":88.36697,"name":"Moula Ali Mazar"},"c944ef878a92485aab0dc658d57d2885.16":{"guid":"c944ef878a92485aab0dc658d57d2885.16","lat":22.549111,"lng":88.372119,"name":"Almahad-Ul-Madani (Madani Masjid)"},"c5cd4a0fbea2426f9a15a510648cf0ed.16":{"guid":"c5cd4a0fbea2426f9a15a510648cf0ed.16","lat":22.542415,"lng":88.37205,"name":"HSP Complex Fountain"},"bf9c20f86b214033a05645ae2cecf744.16":{"guid":"bf9c20f86b214033a05645ae2cecf744.16","lat":22.541867,"lng":88.39626,"name":"Water Mechanical Design"},"5e7b100ccab54b1eba70dcdf19708c00.16":{"guid":"5e7b100ccab54b1eba70dcdf19708c00.16","lat":22.544784,"lng":88.398107,"name":"Pala Replicas - Curvy lady"},"9d484af8fb614185904db1b0f9db3ae9.16":{"guid":"9d484af8fb614185904db1b0f9db3ae9.16","lat":22.513154,"lng":88.403468,"name":"Ayurveda Murals Near Ruby Hospital"},"57216398fdef4ca3a96eab74cb628555.16":{"guid":"57216398fdef4ca3a96eab74cb628555.16","lat":22.520099,"lng":88.382499,"name":"Shiv Temple"},"bb3848dc4daf49ceacaa00069a5c3710.16":{"guid":"bb3848dc4daf49ceacaa00069a5c3710.16","lat":22.528178,"lng":88.371312,"name":"Goddess Durga Mural"},"a1eb73247dc048db84c796519f82ca3c.16":{"guid":"a1eb73247dc048db84c796519f82ca3c.16","lat":22.525213,"lng":88.366056,"name":"Mandeville Shani Temple"},"fa76850862764b7cb10e9cb889ce1f7a.16":{"guid":"fa76850862764b7cb10e9cb889ce1f7a.16","lat":22.530433,"lng":88.36496,"name":"Birla Mandir"},"c9cecd82a2274d43821a4d35eaa6bd0f.16":{"guid":"c9cecd82a2274d43821a4d35eaa6bd0f.16","lat":22.53438,"lng":88.363349,"name":"Birla Industrial and Technological Museum"},"4577fa25c70e4605ab64278f8d2066e9.16":{"guid":"4577fa25c70e4605ab64278f8d2066e9.16","lat":22.518572,"lng":88.358599,"name":"Shani Temple at Desopriya Park"},"eeb3d8d304774d9c9e4d7b3e5ebbf355.16":{"guid":"eeb3d8d304774d9c9e4d7b3e5ebbf355.16","lat":22.518188,"lng":88.356266,"name":"Mahanirvan Math"},"07ccbe6553dc42a1a8e0df350230a964.16":{"guid":"07ccbe6553dc42a1a8e0df350230a964.16","lat":22.518967,"lng":88.352841,"name":"Lions Children's Park","isEx":true},"7e5aa02c039e4772880ef747cf9f38f8.16":{"guid":"7e5aa02c039e4772880ef747cf9f38f8.16","lat":22.520353,"lng":88.34201,"name":"Kali Ghat Temple"},"ee9b204109ae48758f499a62a63e6463.16":{"guid":"ee9b204109ae48758f499a62a63e6463.16","lat":22.526438,"lng":88.342689,"name":"Shiv Temple"},"f2ae718a02a0487288d601383ae6aac2.16":{"guid":"f2ae718a02a0487288d601383ae6aac2.16","lat":22.524351,"lng":88.346353,"name":"Bust of Premendra Mitra"},"729f67c612ce4c59a451d057becff38a.16":{"guid":"729f67c612ce4c59a451d057becff38a.16","lat":22.523529,"lng":88.346661,"name":"Indira Gandhi Statue"},"180e1c2da82d45c399c7b01c800e405c.16":{"guid":"180e1c2da82d45c399c7b01c800e405c.16","lat":22.539545,"lng":88.346741,"name":"Villager Marble Mural"},"509cb4a31ece46a8b2acf7f459a55de7.16":{"guid":"509cb4a31ece46a8b2acf7f459a55de7.16","lat":22.534974,"lng":88.333467,"name":"National Library"},"21d5c68129904aedbaa24b1335b67264.16":{"guid":"21d5c68129904aedbaa24b1335b67264.16","lat":22.537488,"lng":88.334182,"name":"Like a Rickshaw "},"26bf9d707efd4f26b166acdcdc671e22.16":{"guid":"26bf9d707efd4f26b166acdcdc671e22.16","lat":22.541204,"lng":88.326248,"name":"Netaji Statue"},"9f652efa4dc542e3807125adc0ab1ffe.16":{"guid":"9f652efa4dc542e3807125adc0ab1ffe.16","lat":22.562105,"lng":88.33717,"name":"Tank Beside Fort William"},"4355b8aac2dc4a098ca5a00243849a6e.16":{"guid":"4355b8aac2dc4a098ca5a00243849a6e.16","lat":22.563643,"lng":88.338596,"name":"Statue of Bankim Chandra Chatterjee"},"81592ee61624431cbda343038ecf114e.16":{"guid":"81592ee61624431cbda343038ecf114e.16","lat":22.563708,"lng":88.392699,"name":"Kali Mandir"},"1b8ff4ff192046e3879e1db157df99b2.16":{"guid":"1b8ff4ff192046e3879e1db157df99b2.16","lat":22.567703,"lng":88.392305,"name":"Children's Park Phoolbagan"},"a6eb4e0215024c4f8d671dc45eb62c36.16":{"guid":"a6eb4e0215024c4f8d671dc45eb62c36.16","lat":22.562293,"lng":88.400619,"name":"Netaji Shuvash Chandra Bose Mural At Beleghata Main Road "},"21cd65155d8449a3b4b944ac0df45ef7.16":{"guid":"21cd65155d8449a3b4b944ac0df45ef7.16","lat":22.562517,"lng":88.39843,"name":"Salil Choudhury"},"33ced15c0c37486087c568352a0b68af.16":{"guid":"33ced15c0c37486087c568352a0b68af.16","lat":22.589976,"lng":88.397331,"name":"Sishu Tirtha Park Entrance "},"89712bc02b6e4684b975877378931a95.16":{"guid":"89712bc02b6e4684b975877378931a95.16","lat":22.592074,"lng":88.391413,"name":"Dr. Bidhan Rai Statue"},"accb82f3d0664cfb87bfb3042d36b2b3.16":{"guid":"accb82f3d0664cfb87bfb3042d36b2b3.16","lat":22.594313,"lng":88.37471,"name":"Shiv Shrine"},"1cda2951e27c4c248efcd11373b7396a.16":{"guid":"1cda2951e27c4c248efcd11373b7396a.16","lat":22.600079,"lng":88.364416,"name":"Kali mandir "},"788c5025384e4b3cbde8f2b31270b156.16":{"guid":"788c5025384e4b3cbde8f2b31270b156.16","lat":22.596714,"lng":88.371146,"name":"Hindu Shrine"},"e2270369560c4e9baa2f6badd5dfd25b.16":{"guid":"e2270369560c4e9baa2f6badd5dfd25b.16","lat":22.596539,"lng":88.364803,"name":"Narendra Krishna Deb Park Entrance","isEx":true},"3c3f3d6db7f040be97997cfdb0f03557.16":{"guid":"3c3f3d6db7f040be97997cfdb0f03557.16","lat":22.5888,"lng":88.368794,"name":"Botto Krisno Pol","isEx":true},"bddce589af084bf79b4c2d9b5bfdadba.12":{"guid":"bddce589af084bf79b4c2d9b5bfdadba.12","lat":22.586317,"lng":88.36779,"name":"Swami Vivekananda"},"30b9e311040d494ea2d7a118ac60805d.16":{"guid":"30b9e311040d494ea2d7a118ac60805d.16","lat":22.585433,"lng":88.372171,"name":"Hanuman Mandir"},"16005942a8474932b506b52a8094c86c.16":{"guid":"16005942a8474932b506b52a8094c86c.16","lat":22.582402,"lng":88.366213,"name":"Sadharan Brahmo Samaj"},"4aedd0abff204cc890f14c9ab4594a71.16":{"guid":"4aedd0abff204cc890f14c9ab4594a71.16","lat":22.581017,"lng":88.365683,"name":"Lek Tantania Mandir"},"16d2c75a5303429ba7917fb548f1d3c6.16":{"guid":"16d2c75a5303429ba7917fb548f1d3c6.16","lat":22.57687,"lng":88.352397,"name":"Saifee Masjid"},"545e99ec1d3a4398a5986acca77a516a.16":{"guid":"545e99ec1d3a4398a5986acca77a516a.16","lat":22.579503,"lng":88.360827,"name":"AC MG Masjid "},"bd3debba2f0946669f5f3c0e857a52ab.16":{"guid":"bd3debba2f0946669f5f3c0e857a52ab.16","lat":22.574997,"lng":88.359808,"name":"School of Tropical Medicine"},"0955bf9130fa40cd84515d7815e2cab9.16":{"guid":"0955bf9130fa40cd84515d7815e2cab9.16","lat":22.575284,"lng":88.362679,"name":"Soumendranath Bandhopadhay Statue"},"901ff4fcfa9f49b681889714f34fedce.16":{"guid":"901ff4fcfa9f49b681889714f34fedce.16","lat":22.574785,"lng":88.362998,"name":"Calcutta University"},"deb2700e9d7248debaebc72de0a4d490.16":{"guid":"deb2700e9d7248debaebc72de0a4d490.16","lat":22.574271,"lng":88.367569,"name":"Sita Ram Mandir"},"287d8f900a384831a8a9e729bedad9c4.16":{"guid":"287d8f900a384831a8a9e729bedad9c4.16","lat":22.579875,"lng":88.36993,"name":"Ananda Mohan College 1961"},"bebdb92fef3a420385741bf18059cbda.16":{"guid":"bebdb92fef3a420385741bf18059cbda.16","lat":22.578391,"lng":88.374155,"name":"Institute of Post Graduate Ayurvedic Education and Research"},"8d653a0990a24b078f0b2eb7be5c85e5.16":{"guid":"8d653a0990a24b078f0b2eb7be5c85e5.16","lat":22.575994,"lng":88.373296,"name":"Statue of Dr. Bidhan Chandra Roy"},"4580ec9ba41f474dbd88967a5073f2f1.16":{"guid":"4580ec9ba41f474dbd88967a5073f2f1.16","lat":22.571852,"lng":88.372837,"name":"Hero Horse"},"db6413d66abc47419fc3a31e3f3ba311.16":{"guid":"db6413d66abc47419fc3a31e3f3ba311.16","lat":22.571856,"lng":88.371531,"name":"Medina Masjid"},"c4f5860e176e47119b0c7eaf6fb058cd.16":{"guid":"c4f5860e176e47119b0c7eaf6fb058cd.16","lat":22.571239,"lng":88.355257,"name":"Carey Baptist Church"},"f2806bdb57114414bccab743fd31e8c6.16":{"guid":"f2806bdb57114414bccab743fd31e8c6.16","lat":22.570554,"lng":88.357886,"name":"Mosaik Art"},"6ea804d2ccf845b0b940c9f841fbcbfa.16":{"guid":"6ea804d2ccf845b0b940c9f841fbcbfa.16","lat":22.5713,"lng":88.350819,"name":"Shiv Mandir at R.N.Mukherjee Road"},"c71b9ea15ade4a9d999678ed50cd4f01.12":{"guid":"c71b9ea15ade4a9d999678ed50cd4f01.12","lat":22.572976,"lng":88.350895,"name":"St. Andrew's Church near Writers"},"2a83779f178b45dba1fa9f48b8feb3e8.16":{"guid":"2a83779f178b45dba1fa9f48b8feb3e8.16","lat":22.572722,"lng":88.34455,"name":"Entry To Millennium Park","isEx":true},"97fe3cf3c4f74fccad0ce2ed46e3fd3d.16":{"guid":"97fe3cf3c4f74fccad0ce2ed46e3fd3d.16","lat":22.569735,"lng":88.345757,"name":"St John's Church"},"822a5d27cda14564bcaf573ae4246a19.16":{"guid":"822a5d27cda14564bcaf573ae4246a19.16","lat":22.56781,"lng":88.343168,"name":"Statue of Masterda Surya Sen","isEx":true},"03759cae66e349389340eec4ca39e257.16":{"guid":"03759cae66e349389340eec4ca39e257.16","lat":22.563969,"lng":88.345202,"name":"Statue of Goushto Pal","isEx":true},"8d2d5d8f6ebd40e1bf006fa0845b0831.16":{"guid":"8d2d5d8f6ebd40e1bf006fa0845b0831.16","lat":22.566406,"lng":88.348719,"name":"Esplanade Mansion"},"570394e9543448179f3096a1c64162a4.16":{"guid":"570394e9543448179f3096a1c64162a4.16","lat":22.565483,"lng":88.352032,"name":"Mosque"},"931e089cd8c14abfab3b83ef977447c4.16":{"guid":"931e089cd8c14abfab3b83ef977447c4.16","lat":22.568251,"lng":88.356287,"name":"Designed Walls at Chandni Metro"},"a787daf24e9f42179bac98c61fb71bd5.16":{"guid":"a787daf24e9f42179bac98c61fb71bd5.16","lat":22.564702,"lng":88.366445,"name":"Dixon Lane Mandir  "},"6b9dffe047de41ba9545c4063081b8ea.16":{"guid":"6b9dffe047de41ba9545c4063081b8ea.16","lat":22.569554,"lng":88.370834,"name":"St  John's Catholic Church Acharya Prafullo Chandra Street"},"639edacb4bb048f8993272ee012df903.16":{"guid":"639edacb4bb048f8993272ee012df903.16","lat":22.567366,"lng":88.370681,"name":"Mural at Sealdah Railway Station"},"018e1ea478dd4bd2aa4546d7d4755d7a.16":{"guid":"018e1ea478dd4bd2aa4546d7d4755d7a.16","lat":22.556444,"lng":88.314817,"name":"Shalimar Railway Platform"},"30bdf5a36929427dbd583b27951c20a7.16":{"guid":"30bdf5a36929427dbd583b27951c20a7.16","lat":22.556605,"lng":88.307809,"name":"Statue Of R N Tagore"},"d75bfa7bd78943eab9f6237e93ca157c.16":{"guid":"d75bfa7bd78943eab9f6237e93ca157c.16","lat":22.592446,"lng":88.327771,"name":"Narasinha Dutt College ","isEx":true},"208d046e4979485a94890bca73eed281.16":{"guid":"208d046e4979485a94890bca73eed281.16","lat":22.557284,"lng":88.300726,"name":"Kali Mandir Near Botanical Garden"},"f60e6cdcc97b46f282cc67679f0610b3.16":{"guid":"f60e6cdcc97b46f282cc67679f0610b3.16","lat":22.555903,"lng":88.29548,"name":"Fauna Of Botanical Garden"},"067704c36782489c8973c80def8af185.16":{"guid":"067704c36782489c8973c80def8af185.16","lat":22.556749,"lng":88.292371,"name":"Dr. Vishwanath Mudgal Commemorative Plaque"},"2be087f25ced46978e29cb7222c069ff.16":{"guid":"2be087f25ced46978e29cb7222c069ff.16","lat":22.559421,"lng":88.287393,"name":"Gazebo Near The Great Banyan Tree"},"6c84248ddb22483d972e2bc6196a6220.16":{"guid":"6c84248ddb22483d972e2bc6196a6220.16","lat":22.581329,"lng":88.273547,"name":"Sai Baba Mandir"},"8c31b2080bc34f72b034ad597ab9a72a.16":{"guid":"8c31b2080bc34f72b034ad597ab9a72a.16","lat":22.582755,"lng":88.285841,"name":"Netaji Subhas Bose Bust","isEx":true},"a40b65c26ba844c896fc3032059dfdd3.16":{"guid":"a40b65c26ba844c896fc3032059dfdd3.16","lat":22.582804,"lng":88.284046,"name":"Water Tower At Santragachi Junction"},"06ac56d3006c4b47a59d15992637d586.16":{"guid":"06ac56d3006c4b47a59d15992637d586.16","lat":22.581439,"lng":88.290052,"name":"Tarun Sangha Library"},"880c28eeb68b42e08949be657e53271e.16":{"guid":"880c28eeb68b42e08949be657e53271e.16","lat":22.578061,"lng":88.286597,"name":"Chasir Math Kali Temple"},"ae78bf269f9a474d931db500c0ae5335.16":{"guid":"ae78bf269f9a474d931db500c0ae5335.16","lat":22.582262,"lng":88.294972,"name":"Mata Mandir"},"bcb90e62b0a8422d8db62caf6dfa241c.16":{"guid":"bcb90e62b0a8422d8db62caf6dfa241c.16","lat":22.588969,"lng":88.29765,"name":"Jagadguru Shankaracharya Ved Vidyapeetham Shankar Math"},"5aa86de049664fd090e6eb39958f6595.16":{"guid":"5aa86de049664fd090e6eb39958f6595.16","lat":22.697052,"lng":88.256283,"name":"Small Temple "},"1e5b1c049e76498b82107f5e10dc7949.16":{"guid":"1e5b1c049e76498b82107f5e10dc7949.16","lat":22.698185,"lng":88.252104,"name":"Shiva Temple "},"a4f3b4d258394b8182f563a86cefd41a.16":{"guid":"a4f3b4d258394b8182f563a86cefd41a.16","lat":22.500519,"lng":88.224044,"name":"Nangi Rail Station"},"66ab21bf18bd4a018a6272acdad74eac.16":{"guid":"66ab21bf18bd4a018a6272acdad74eac.16","lat":22.499619,"lng":88.231473,"name":"Shani Temple"},"26ed081d8a6949288ec131598ae36a76.16":{"guid":"26ed081d8a6949288ec131598ae36a76.16","lat":22.503256,"lng":88.222192,"name":"RadhaGovinda Temple"},"0c12b2b6a4734345926ecbba80a93a44.16":{"guid":"0c12b2b6a4734345926ecbba80a93a44.16","lat":22.500906,"lng":88.221317,"name":"Children's Park"},"0bf89de707e44bc09caa29f8f5a71e84.16":{"guid":"0bf89de707e44bc09caa29f8f5a71e84.16","lat":22.518745,"lng":88.298951,"name":"Small Shiv Temple"},"31e638fac71d4eb5a4c265782ae129cf.16":{"guid":"31e638fac71d4eb5a4c265782ae129cf.16","lat":22.516697,"lng":88.303309,"name":"Statute of Chief Minister Joyti Basu"},"d73696bf681a47c1ad18eabf192496bc.16":{"guid":"d73696bf681a47c1ad18eabf192496bc.16","lat":22.515245,"lng":88.300446,"name":"Om Ma Kali Mandir"},"9bf2e50a1caa47269594b0aa98b40718.16":{"guid":"9bf2e50a1caa47269594b0aa98b40718.16","lat":22.510272,"lng":88.305544,"name":"Swami Vivekananda Statue"},"8d724ef0062946b1a0358fcf343a3c33.16":{"guid":"8d724ef0062946b1a0358fcf343a3c33.16","lat":22.508784,"lng":88.306887,"name":"Parnasree post Office"},"1ed106a1bd714d17ad4a2af6c7ec4657.16":{"guid":"1ed106a1bd714d17ad4a2af6c7ec4657.16","lat":22.503591,"lng":88.303918,"name":"Shiv Temple"},"79a08f4b54114b24bc792dad76938245.16":{"guid":"79a08f4b54114b24bc792dad76938245.16","lat":22.499715,"lng":88.296414,"name":"Small Shiv Mandir"},"f7232eec165a4314b1566bd47b921747.16":{"guid":"f7232eec165a4314b1566bd47b921747.16","lat":22.495095,"lng":88.292008,"name":"Shiv Mandir "},"2c0072ce34b24a89a3c6728dbd54b64a.16":{"guid":"2c0072ce34b24a89a3c6728dbd54b64a.16","lat":22.513017,"lng":88.322984,"name":"A Street Side Shrine to Lord Shiva"},"88040883a3ef417ab7a82866463f4fc7.16":{"guid":"88040883a3ef417ab7a82866463f4fc7.16","lat":22.51962,"lng":88.323473,"name":"Shiv Temple Near D. H. Road"},"89b9a47be1bb4df18e04319c4a8578f7.16":{"guid":"89b9a47be1bb4df18e04319c4a8578f7.16","lat":22.501174,"lng":88.316967,"name":"Jagannath Temple"},"61f21fff9e6a44aab27a6e80cc2bd669.16":{"guid":"61f21fff9e6a44aab27a6e80cc2bd669.16","lat":22.499151,"lng":88.316502,"name":"Vidyasagar Statue"},"e67a840ce9004a1f830b1dd5d917c839.16":{"guid":"e67a840ce9004a1f830b1dd5d917c839.16","lat":22.452715,"lng":88.30261,"name":"Joka Water Tank"},"aa7f540bd6e344199dffb11ba81dc73f.16":{"guid":"aa7f540bd6e344199dffb11ba81dc73f.16","lat":22.513745,"lng":88.324678,"name":"Durga Temple"},"01b73266652a41a6a4ae39f49eadfce8.16":{"guid":"01b73266652a41a6a4ae39f49eadfce8.16","lat":22.512978,"lng":88.325826,"name":"Hanuman Temple New Alipore"},"f8277affd63f475b9408363b4ffa51c3.16":{"guid":"f8277affd63f475b9408363b4ffa51c3.16","lat":22.515422,"lng":88.333167,"name":"Sitala Mandir"},"890e78cedb2c40e7b52671e4737d7939.16":{"guid":"890e78cedb2c40e7b52671e4737d7939.16","lat":22.515449,"lng":88.336044,"name":"Kali Mata Temple"},"49b072fa8a1147429f445a420b737622.16":{"guid":"49b072fa8a1147429f445a420b737622.16","lat":22.513197,"lng":88.345771,"name":"Shoni Temple"},"70402080084a4f64ab696429c3cc6431.16":{"guid":"70402080084a4f64ab696429c3cc6431.16","lat":22.513984,"lng":88.352922,"name":"Sarat Bose Road Post Office"},"4a4f0d7956e04ecc9293cb9d8f250971.16":{"guid":"4a4f0d7956e04ecc9293cb9d8f250971.16","lat":22.514974,"lng":88.354841,"name":"Shiv Temple Under Tree"},"384f20702d7444a1ba0bda84c2cb5ec5.16":{"guid":"384f20702d7444a1ba0bda84c2cb5ec5.16","lat":22.512135,"lng":88.359839,"name":"AMRI Victim Statue","isEx":true},"15ec58498298498b9548c04ddda1d106.16":{"guid":"15ec58498298498b9548c04ddda1d106.16","lat":22.513935,"lng":88.364554,"name":"Rabindranath As Valmiki","isEx":true},"8d7c4060e7f84655aa42c318344a2b81.16":{"guid":"8d7c4060e7f84655aa42c318344a2b81.16","lat":22.516133,"lng":88.366683,"name":"Shiv Temple at Golpark"},"2c1252058435495ea63316f61ff5643b.16":{"guid":"2c1252058435495ea63316f61ff5643b.16","lat":22.510507,"lng":88.37136,"name":"Dhakuria Public Library"},"ca27516449904a289596cfeec56b9a70.16":{"guid":"ca27516449904a289596cfeec56b9a70.16","lat":22.510754,"lng":88.377258,"name":"Bust Of Rajiv Gandhi"},"ed2d3b63e8f5452385889487abdafc34.16":{"guid":"ed2d3b63e8f5452385889487abdafc34.16","lat":22.515449,"lng":88.381042,"name":"Sri Sri Premkishore Jiv Mandir"},"76d0715046ce47bdbeb5fd6c729f20a8.16":{"guid":"76d0715046ce47bdbeb5fd6c729f20a8.16","lat":22.514399,"lng":88.3938,"name":"Gitanjali stadium "},"d5ca933dd085405f956370ba8e799a97.16":{"guid":"d5ca933dd085405f956370ba8e799a97.16","lat":22.513662,"lng":88.399508,"name":"Wall Mosaic of Acharya Jagadish Chandra Bose"},"ce4c6456c92f4795acc1a363feba8616.16":{"guid":"ce4c6456c92f4795acc1a363feba8616.16","lat":22.506532,"lng":88.397339,"name":"Kalitala Kali Mandir"},"c9ff086900f54ff498b19fb1c5b97cb7.16":{"guid":"c9ff086900f54ff498b19fb1c5b97cb7.16","lat":22.507678,"lng":88.389868,"name":"Purbachal Eastbengal Anugami"},"4ad68bd73f7e4971aa1e61dae3090fb0.16":{"guid":"4ad68bd73f7e4971aa1e61dae3090fb0.16","lat":22.510233,"lng":88.383298,"name":" Ma Kali Temple"},"c36285e0a3474398916121b776366288.16":{"guid":"c36285e0a3474398916121b776366288.16","lat":22.509299,"lng":88.378563,"name":"Sharat Bose Park"},"4b5fa4976b474f1985cf0309ea9a1a7c.16":{"guid":"4b5fa4976b474f1985cf0309ea9a1a7c.16","lat":22.504935,"lng":88.376128,"name":"Shiv Temple Under Tree"},"c45900f2c1da4b399d75d326fabafcff.16":{"guid":"c45900f2c1da4b399d75d326fabafcff.16","lat":22.506925,"lng":88.371391,"name":"Shiva Temple"},"5a02cacbf668430b9bb7d86461ccb4f1.16":{"guid":"5a02cacbf668430b9bb7d86461ccb4f1.16","lat":22.509341,"lng":88.36768,"name":"Hanuman Temple,  Dhakuria,  Kolkata "},"4aab428403e84cdcbe732002f0174884.16":{"guid":"4aab428403e84cdcbe732002f0174884.16","lat":22.508564,"lng":88.36704,"name":"Dakshinapan Kali Temple"},"59ca3ea46075465c95c7ac7504466e41.16":{"guid":"59ca3ea46075465c95c7ac7504466e41.16","lat":22.505008,"lng":88.366445,"name":"Entrance To Jodhpur Park","isEx":true},"3d1911b3dcd3415c921b042d45cf30f4.16":{"guid":"3d1911b3dcd3415c921b042d45cf30f4.16","lat":22.509999,"lng":88.359169,"name":"Glass Tower Of The Sarovar","isEx":true},"df7c6e8243b4443cbc28b2bc11c56247.16":{"guid":"df7c6e8243b4443cbc28b2bc11c56247.16","lat":22.509445,"lng":88.354446,"name":"Bust Of Poet Jevaanananda Das"},"4785038232454539af378e62e5001a06.16":{"guid":"4785038232454539af378e62e5001a06.16","lat":22.506904,"lng":88.34558,"name":"Shiv Temple"},"1fb8fd70456d4726bffbae86ee2b5deb.16":{"guid":"1fb8fd70456d4726bffbae86ee2b5deb.16","lat":22.50528,"lng":88.340413,"name":"Shiv Temple"},"10cfc578036443ad8131fe76497f90f8.16":{"guid":"10cfc578036443ad8131fe76497f90f8.16","lat":22.50731,"lng":88.337313,"name":"Children's Park"},"eea7f7c8c9114ccaad477782d0aff19b.16":{"guid":"eea7f7c8c9114ccaad477782d0aff19b.16","lat":22.509007,"lng":88.332821,"name":"Swami Vivekananda Statue"},"89a0adf897344732b05041f683c8170e.16":{"guid":"89a0adf897344732b05041f683c8170e.16","lat":22.503651,"lng":88.339513,"name":"Tollygunge Mosque"},"9aa45f33e78c43dc81f0c7281d2f4cc4.16":{"guid":"9aa45f33e78c43dc81f0c7281d2f4cc4.16","lat":22.501702,"lng":88.345269,"name":"Mosque at Anwar Shah Road "},"c67c91dc013d4d6eaaedea2a87cd1bd4.16":{"guid":"c67c91dc013d4d6eaaedea2a87cd1bd4.16","lat":22.502391,"lng":88.35793,"name":"Baba Trinath Temple"},"f73f617a7a4247949a1f02738ec5cd41.16":{"guid":"f73f617a7a4247949a1f02738ec5cd41.16","lat":22.501964,"lng":88.362202,"name":"South City Mall"},"b2beaf77b73e48c3969189f6e1977ff2.16":{"guid":"b2beaf77b73e48c3969189f6e1977ff2.16","lat":22.501899,"lng":88.363234,"name":"Ma Bipodtarini Chandi Mandir"},"e919277e8b994406a534127aff16c1c9.16":{"guid":"e919277e8b994406a534127aff16c1c9.16","lat":22.503052,"lng":88.364936,"name":"Ambika Chakrabarty Statue"},"70e9228aaa084933a38add308acd5c2d.16":{"guid":"70e9228aaa084933a38add308acd5c2d.16","lat":22.499771,"lng":88.369455,"name":"Jadavpur University Gate 4"},"f249d44e50a0494c96023759a99aa0e5.16":{"guid":"f249d44e50a0494c96023759a99aa0e5.16","lat":22.499577,"lng":88.369657,"name":"Jadavpur University Institute of Business  Management"},"2e7e3b7b4f7144d8823d8d56e326bdd7.16":{"guid":"2e7e3b7b4f7144d8823d8d56e326bdd7.16","lat":22.503906,"lng":88.372672,"name":"Masjid E Alam"},"080d4d6ae57d4a50a23b876593b16121.16":{"guid":"080d4d6ae57d4a50a23b876593b16121.16","lat":22.503753,"lng":88.376986,"name":"Maa Manasha Temple"},"79cf9d102f324a4cbc6deed2d283f5c6.16":{"guid":"79cf9d102f324a4cbc6deed2d283f5c6.16","lat":22.502622,"lng":88.381046,"name":"Park Beside Bypass Road"},"3902aa7c90594442b03b44d99eee4abb.16":{"guid":"3902aa7c90594442b03b44d99eee4abb.16","lat":22.502489,"lng":88.384146,"name":"Bust Of Dulal Das Thakur "},"53a37294f7494a17acc33d80a2876c98.16":{"guid":"53a37294f7494a17acc33d80a2876c98.16","lat":22.503843,"lng":88.394925,"name":"Kali Mata Mandir"},"07ced5a4069a4c519d535904844e643d.16":{"guid":"07ced5a4069a4c519d535904844e643d.16","lat":22.502985,"lng":88.400212,"name":"Shiv Kali Temple"},"d765bfeec190446389abae33f98fb08a.16":{"guid":"d765bfeec190446389abae33f98fb08a.16","lat":22.493862,"lng":88.390092,"name":"Kali Shrine"},"9247f8969b5c42ffaed651cd24790d12.16":{"guid":"9247f8969b5c42ffaed651cd24790d12.16","lat":22.496088,"lng":88.372572,"name":"Jadavpur University Gate 1"},"74101b0886de49b79e2c5cc8f954ac3d.16":{"guid":"74101b0886de49b79e2c5cc8f954ac3d.16","lat":22.497055,"lng":88.370348,"name":"Sri Sri Romona Kali Mandir"},"e7967f2cf7134ec5bc2de4abb3f20656.16":{"guid":"e7967f2cf7134ec5bc2de4abb3f20656.16","lat":22.498129,"lng":88.37026,"name":"Jadavpur University Gate 3"},"864dfcbc80694219831c5935911d9be9.16":{"guid":"864dfcbc80694219831c5935911d9be9.16","lat":22.496918,"lng":88.360882,"name":"Radhagobind Temple "},"cabe137c3d8e4ee99482385efa1a2ab2.16":{"guid":"cabe137c3d8e4ee99482385efa1a2ab2.16","lat":22.493789,"lng":88.345108,"name":"Tollygaunge Metro Water Tank"},"2ab88ec1bc7741af87a7380529ce7556.16":{"guid":"2ab88ec1bc7741af87a7380529ce7556.16","lat":22.489018,"lng":88.343454,"name":"Swami Pranabananda Ji Maharaj Statue"},"b2bb195c46b3461b864cd70e52d3e559.16":{"guid":"b2bb195c46b3461b864cd70e52d3e559.16","lat":22.490948,"lng":88.347265,"name":"Lokenath Temple"},"02ed65a8774b4968891dd807bb8c0d9e.16":{"guid":"02ed65a8774b4968891dd807bb8c0d9e.16","lat":22.487425,"lng":88.349449,"name":"Nehru Playground","isEx":true},"a8e4d396403a40a4b1de9b04670529bb.16":{"guid":"a8e4d396403a40a4b1de9b04670529bb.16","lat":22.491602,"lng":88.349058,"name":"Santigarh Temple"},"47b5a68ad1e443f98ad99be700e3a7b3.16":{"guid":"47b5a68ad1e443f98ad99be700e3a7b3.16","lat":22.491315,"lng":88.372497,"name":"Bust Of Sukanta Bhattacharya"},"d529dcc23c1e40b18a1020b7b753bff8.16":{"guid":"d529dcc23c1e40b18a1020b7b753bff8.16","lat":22.491613,"lng":88.371973,"name":"Lokenath Statue Near Naba Dham"},"0120519b6cdc4c30a0a86ed20cba6324.16":{"guid":"0120519b6cdc4c30a0a86ed20cba6324.16","lat":22.486779,"lng":88.376322,"name":"Jyoti Sangha Library"},"0d33a68c64d6422ababcf6e29567586b.16":{"guid":"0d33a68c64d6422ababcf6e29567586b.16","lat":22.483061,"lng":88.386226,"name":"Shib &  Gouri temple"},"b7bf286858904002b104fcf77077e482.16":{"guid":"b7bf286858904002b104fcf77077e482.16","lat":22.484748,"lng":88.383001,"name":"Sri Ramkrishna Ashram"},"9c11e45c6e2746e69ce4f4bdfcacf1dc.16":{"guid":"9c11e45c6e2746e69ce4f4bdfcacf1dc.16","lat":22.484648,"lng":88.380068,"name":"Tarun Sangha"},"43d1bbb7e8fc4adabd3d681b4bdabe07.16":{"guid":"43d1bbb7e8fc4adabd3d681b4bdabe07.16","lat":22.483003,"lng":88.3782,"name":"Ramthakur Ashram"},"2e33f97baf454d65b092ff96d242e105.16":{"guid":"2e33f97baf454d65b092ff96d242e105.16","lat":22.483015,"lng":88.376827,"name":"বিবেকানন্দ মিলন সংঘ"},"be7be8de44e840f899b7029b75d549d0.16":{"guid":"be7be8de44e840f899b7029b75d549d0.16","lat":22.482171,"lng":88.373213,"name":"Maheswari Temple"},"6b15a6a40aaa46549ef432a1b7d6e894.16":{"guid":"6b15a6a40aaa46549ef432a1b7d6e894.16","lat":22.485387,"lng":88.369183,"name":"Kali Temple"},"c8dfc92e259e43c4b2c7fde59b391041.16":{"guid":"c8dfc92e259e43c4b2c7fde59b391041.16","lat":22.481881,"lng":88.366399,"name":"Uday Sangha"},"cafb859ede514d37bdfb955b0eb953f9.16":{"guid":"cafb859ede514d37bdfb955b0eb953f9.16","lat":22.482104,"lng":88.36606,"name":"Vivekananda Statue"},"b9b62d7eb5784dcb9c22391c5b091df4.16":{"guid":"b9b62d7eb5784dcb9c22391c5b091df4.16","lat":22.48565,"lng":88.359159,"name":"Netaji Child Park Entrance"},"afbe09db18124701822366a971603d82.16":{"guid":"afbe09db18124701822366a971603d82.16","lat":22.484178,"lng":88.355942,"name":"Hanuman Temple"},"b3d923dc2b6e4fd0891b430b8b5843df.16":{"guid":"b3d923dc2b6e4fd0891b430b8b5843df.16","lat":22.483158,"lng":88.353449,"name":"Kali Temple"},"1825303c4f404c069a3c4eaf5c129a87.16":{"guid":"1825303c4f404c069a3c4eaf5c129a87.16","lat":22.481728,"lng":88.349334,"name":"Bottala Shiv Mandir"},"0e28c00380dd4a55a7e3466423258562.16":{"guid":"0e28c00380dd4a55a7e3466423258562.16","lat":22.481813,"lng":88.347659,"name":"Wireless K.M.C Park","isEx":true},"d487aee402d140fc9b095a5de78593f8.16":{"guid":"d487aee402d140fc9b095a5de78593f8.16","lat":22.48226,"lng":88.347285,"name":"Swami Vivekanda Statue","isEx":true},"1552a034544b430f83178c31bcbb5954.16":{"guid":"1552a034544b430f83178c31bcbb5954.16","lat":22.481213,"lng":88.343228,"name":"Sitala Mata Mandir"},"3f38b9512cd344a38482728685d51a8d.16":{"guid":"3f38b9512cd344a38482728685d51a8d.16","lat":22.481043,"lng":88.333731,"name":"Manosha Mata Mandir"},"06f1f618a0e549e78f9d059d0818c8e2.16":{"guid":"06f1f618a0e549e78f9d059d0818c8e2.16","lat":22.478721,"lng":88.355772,"name":"Shani Temple , Gachtala"},"4ffa1e098e3e459babaf4cf616502a99.16":{"guid":"4ffa1e098e3e459babaf4cf616502a99.16","lat":22.477276,"lng":88.360532,"name":"Maa Annapurna Temple"},"1b970d9999a34c38bc8ec5a0abea3557.16":{"guid":"1b970d9999a34c38bc8ec5a0abea3557.16","lat":22.474992,"lng":88.366412,"name":"Shani Temple"},"cb50b724e2064c259f8c26af230126e7.16":{"guid":"cb50b724e2064c259f8c26af230126e7.16","lat":22.477142,"lng":88.36967,"name":"Bust Of Vidyasagar"},"6b8ea59066e1468f852d3c5f3a18a150.16":{"guid":"6b8ea59066e1468f852d3c5f3a18a150.16","lat":22.476433,"lng":88.375411,"name":"Ganguly Bagan Water  Tank,  Ganguly  Bagan,  Kolkata "},"2000ebf92c7b41948852f58e2d82c60b.16":{"guid":"2000ebf92c7b41948852f58e2d82c60b.16","lat":22.475035,"lng":88.376623,"name":"Saturn's Temple"},"f9e02dc0a2cc45a0bdadbe1038ba085a.16":{"guid":"f9e02dc0a2cc45a0bdadbe1038ba085a.16","lat":22.476488,"lng":88.381547,"name":"Jabulani Football Art Statue"},"4d67126488b94d8d8a7a80b93f8681cc.16":{"guid":"4d67126488b94d8d8a7a80b93f8681cc.16","lat":22.472765,"lng":88.397804,"name":"New Garia Railway Station"},"6ff1f5963309456498152a37adf8232f.16":{"guid":"6ff1f5963309456498152a37adf8232f.16","lat":22.472343,"lng":88.389259,"name":"Football Players "},"4d0f0e33f03d4b9ca710f0d7a1cad31d.16":{"guid":"4d0f0e33f03d4b9ca710f0d7a1cad31d.16","lat":22.471944,"lng":88.377327,"name":"Baishnabghata Jora Mandir Baishnabghata Kolkata "},"8ea9bc499670441fa45aab16d84713f9.16":{"guid":"8ea9bc499670441fa45aab16d84713f9.16","lat":22.469279,"lng":88.370578,"name":"Wall Art"},"2483eeef6fbe405c9986285c118b9fa3.16":{"guid":"2483eeef6fbe405c9986285c118b9fa3.16","lat":22.469942,"lng":88.372297,"name":"Neel Moni Smriti Mandir"},"63818787787c4cdc9355021fb99ce143.16":{"guid":"63818787787c4cdc9355021fb99ce143.16","lat":22.472189,"lng":88.366059,"name":"Shiva Temple, Naktala"},"18c193bd84ba42a7863e61b68d1017f5.16":{"guid":"18c193bd84ba42a7863e61b68d1017f5.16","lat":22.472863,"lng":88.364573,"name":"Santoshbala Library"},"565e5f79cb674f25ad2e2726ee37da10.16":{"guid":"565e5f79cb674f25ad2e2726ee37da10.16","lat":22.47401,"lng":88.36195,"name":"Shiva Temple "},"6ff6363cd5594142af0d6391203a8765.16":{"guid":"6ff6363cd5594142af0d6391203a8765.16","lat":22.474015,"lng":88.360804,"name":"Masterda Surya Sen Metro Rail Station "},"1b9782e8a0254c4fbeb9cb74b1983734.16":{"guid":"1b9782e8a0254c4fbeb9cb74b1983734.16","lat":22.466925,"lng":88.369092,"name":"Bidhanpally Sitala Temple "},"3a0e6f76dc374a7d9cc7bdd0f0664f6a.16":{"guid":"3a0e6f76dc374a7d9cc7bdd0f0664f6a.16","lat":22.46578,"lng":88.376506,"name":"Shani temple"},"7b1ef23727ce4ebc8c90bac20224088f.16":{"guid":"7b1ef23727ce4ebc8c90bac20224088f.16","lat":22.46286,"lng":88.379972,"name":"Garia Sitala Mandir"},"277c6b22a4a84fe89fc7779e29c454ad.16":{"guid":"277c6b22a4a84fe89fc7779e29c454ad.16","lat":22.463851,"lng":88.379808,"name":"Statue Of Bidrohi Kavi Nazrul Islam"},"708b6abfc68c4c7499f5896e96d9ba36.16":{"guid":"708b6abfc68c4c7499f5896e96d9ba36.16","lat":22.457458,"lng":88.384602,"name":"Garia Hanuman Mandir"},"b17c6a833a9946dd8a9638b22fac278b.16":{"guid":"b17c6a833a9946dd8a9638b22fac278b.16","lat":22.446991,"lng":88.394991,"name":"Ramkrishna Mission"},"d11c5581d6ea4d2aa5d472f4294530b3.16":{"guid":"d11c5581d6ea4d2aa5d472f4294530b3.16","lat":22.427035,"lng":88.416331,"name":"Overhead Water Tank"},"18e3e2aba6214b469355ffa77af5c82a.16":{"guid":"18e3e2aba6214b469355ffa77af5c82a.16","lat":22.423243,"lng":88.412334,"name":"Bust Of Rabindranath"},"92f35281d463448fa44ab58e1c5f28be.16":{"guid":"92f35281d463448fa44ab58e1c5f28be.16","lat":22.423952,"lng":88.418968,"name":"Nabarun Shangha Club"},"5025a54ad93f411391322a30f30bc7cf.16":{"guid":"5025a54ad93f411391322a30f30bc7cf.16","lat":22.423958,"lng":88.424346,"name":"Sitala And Shiv Temple"},"baedfe18a0bc4cff80e6ce6fcd81fa92.16":{"guid":"baedfe18a0bc4cff80e6ce6fcd81fa92.16","lat":22.427498,"lng":88.424411,"name":"Trombakeshwar Temple"},"cec9784851df4b35a2d5c65fb3b069e2.16":{"guid":"cec9784851df4b35a2d5c65fb3b069e2.16","lat":22.434029,"lng":88.42201,"name":"Shani Mandir"},"eb561ce8b3f44f5eb85ec7a0d159e817.16":{"guid":"eb561ce8b3f44f5eb85ec7a0d159e817.16","lat":22.434589,"lng":88.428178,"name":"Lakshmi Temple"},"3999cc63fd7441b2a6a50ce876cf0452.16":{"guid":"3999cc63fd7441b2a6a50ce876cf0452.16","lat":22.439878,"lng":88.425834,"name":"Pragati Sangha Sporting Club And Library"},"8e55335c087e4f6ca36b23a8c987104d.16":{"guid":"8e55335c087e4f6ca36b23a8c987104d.16","lat":22.442924,"lng":88.430444,"name":"Sonarpur Junction"},"9172f4814913474aa47fe1e16923930f.16":{"guid":"9172f4814913474aa47fe1e16923930f.16","lat":22.440063,"lng":88.430863,"name":"Kali Temple"},"ffdf0c404f0045edb0ae9fb7b88c7b37.16":{"guid":"ffdf0c404f0045edb0ae9fb7b88c7b37.16","lat":22.442384,"lng":88.430343,"name":" Bust Of Swami Vivekananda Near Sonarpur Police Station"},"401cab1722554d078c11e4d999ffeef7.16":{"guid":"401cab1722554d078c11e4d999ffeef7.16","lat":22.442713,"lng":88.430704,"name":"Cultural Wall Art At Sonarpur "},"9671461fb9bc4634bd02415240ab3356.16":{"guid":"9671461fb9bc4634bd02415240ab3356.16","lat":22.450961,"lng":88.434686,"name":"Adi Yogi Shiv Mandir"},"c3887d337c1041f48af1837c29f0f475.16":{"guid":"c3887d337c1041f48af1837c29f0f475.16","lat":22.448169,"lng":88.427372,"name":"The Lions Gate"},"b60e6480c10d4d29bc4d4fb8d75fc1f7.16":{"guid":"b60e6480c10d4d29bc4d4fb8d75fc1f7.16","lat":22.449655,"lng":88.425218,"name":"Manasha Mandir"},"0d4af975210e4c6a901cd2a542051277.16":{"guid":"0d4af975210e4c6a901cd2a542051277.16","lat":22.446009,"lng":88.417593,"name":"Tagore Statue"},"498c23fdc7af4b35a06e3da853ede9e1.16":{"guid":"498c23fdc7af4b35a06e3da853ede9e1.16","lat":22.446249,"lng":88.416384,"name":"Mihirendra Sengupta Statue"},"263ade0e964045da9167e2f4790e2aff.16":{"guid":"263ade0e964045da9167e2f4790e2aff.16","lat":22.443095,"lng":88.417615,"name":"Radha Gobindo Mandir"},"d05616e7f10144b89c19c767cc8c91a0.16":{"guid":"d05616e7f10144b89c19c767cc8c91a0.16","lat":22.443998,"lng":88.415035,"name":"Holy Cross Church"},"5ae5a9a4def440cd813241b2a07b554f.16":{"guid":"5ae5a9a4def440cd813241b2a07b554f.16","lat":22.453812,"lng":88.418463,"name":"Swami Vivekananda Statue"},"ee8408745a804665a1fbfd247827c7e0.16":{"guid":"ee8408745a804665a1fbfd247827c7e0.16","lat":22.460894,"lng":88.41174,"name":"Lokenath Mandir"},"ff1c7cd4b764482092a38674b5410d27.16":{"guid":"ff1c7cd4b764482092a38674b5410d27.16","lat":22.463267,"lng":88.407825,"name":"Karl Marx Statue"},"dc97434a243642dda6dbfe709f749275.16":{"guid":"dc97434a243642dda6dbfe709f749275.16","lat":22.45822,"lng":88.406733,"name":"Boalia West Kalibari"},"1e5628dd60614a86b478f11f1230796b.16":{"guid":"1e5628dd60614a86b478f11f1230796b.16","lat":22.460435,"lng":88.407204,"name":"Wall Paintings"},"d2ff2bd33b6d43c8a5390f9a89967bcb.16":{"guid":"d2ff2bd33b6d43c8a5390f9a89967bcb.16","lat":22.504157,"lng":88.516162,"name":"Murals "},"b64ecf0c31d44e6ebfaee27b4ae7eb5c.16":{"guid":"b64ecf0c31d44e6ebfaee27b4ae7eb5c.16","lat":22.410311,"lng":88.429983,"name":"Sitala Mata Mandir"},"eec2c550a97946f680432792a6435214.16":{"guid":"eec2c550a97946f680432792a6435214.16","lat":22.412406,"lng":88.434623,"name":"Shani Dev Temple"},"136b0fa2a2af48fdb37c6332db4b3f9b.16":{"guid":"136b0fa2a2af48fdb37c6332db4b3f9b.16","lat":22.414044,"lng":88.434352,"name":"Subhasgram Train Station "},"9b4f647385d347009766858cb3050e19.16":{"guid":"9b4f647385d347009766858cb3050e19.16","lat":22.398112,"lng":88.432996,"name":"Sri Sri Shani Mandir"},"55983770f95041f5a24c721516c3cd2b.16":{"guid":"55983770f95041f5a24c721516c3cd2b.16","lat":22.383835,"lng":88.418573,"name":"Shiv Mandir At Khasmallick"},"dfc8e2791eab4cd39c18f0055693264e.16":{"guid":"dfc8e2791eab4cd39c18f0055693264e.16","lat":22.374087,"lng":88.436042,"name":"Calcutta University Agricultural Experimental Farm"},"c54202748ab24768a1b3b77e2350bb88.16":{"guid":"c54202748ab24768a1b3b77e2350bb88.16","lat":22.369134,"lng":88.431877,"name":"Water Tank Near Baruipur Station"},"8bd140aff8e049a6ac793f8b2ab1123b.16":{"guid":"8bd140aff8e049a6ac793f8b2ab1123b.16","lat":22.368529,"lng":88.432024,"name":"Hanuman Temple "},"e76b7f1170af4e40ba43559e3a62c796.16":{"guid":"e76b7f1170af4e40ba43559e3a62c796.16","lat":22.365964,"lng":88.431165,"name":"Fruit Sellers On Baruipur Station Wall Art"},"d3fb653d78ee44e69b87107ed797c146.16":{"guid":"d3fb653d78ee44e69b87107ed797c146.16","lat":22.356652,"lng":88.434223,"name":"Bust Of Rajib Gandhi"},"4ae9950b93e94a2fab8cf3ec8d7c3765.16":{"guid":"4ae9950b93e94a2fab8cf3ec8d7c3765.16","lat":22.592384,"lng":88.284504,"name":"Tank Near KVS"},"33e4aecd6fe541ad9fcf557f2e3cd173.16":{"guid":"33e4aecd6fe541ad9fcf557f2e3cd173.16","lat":22.587995,"lng":88.285621,"name":"Bust Of Netaji Subash Chandra Bose"},"1d02ac3d1f954d56ad43c9b25a28eab6.16":{"guid":"1d02ac3d1f954d56ad43c9b25a28eab6.16","lat":22.657745,"lng":88.41192,"name":"Bust Of Dr. B.R. Ambedkar"},"a8bc627c99c04aebabde77d93dc959c3.16":{"guid":"a8bc627c99c04aebabde77d93dc959c3.16","lat":22.557366,"lng":88.417004,"name":"Shiv Kali Temple"},"c7005eb3bfbb4fc58d3506b2f286abf5.16":{"guid":"c7005eb3bfbb4fc58d3506b2f286abf5.16","lat":22.46617,"lng":88.405026,"name":"Garia Railway Station"},"240db84ccb8d403cb8a0b806cdb2a78c.16":{"guid":"240db84ccb8d403cb8a0b806cdb2a78c.16","lat":22.920754,"lng":88.436781,"name":"Mural at Halisahar Railway Station"},"53cce7df730d48a9a720ad1307a89641.16":{"guid":"53cce7df730d48a9a720ad1307a89641.16","lat":22.768395,"lng":88.539572,"name":"Dattapukur Station "},"a2a543fc11024605946fc01e0255fd21.16":{"guid":"a2a543fc11024605946fc01e0255fd21.16","lat":22.748915,"lng":88.512071,"name":"Bust of B. R. Ambedkar and Rabindranath Tagore "},"ea77698629c14dbfa294c81667ef5180.16":{"guid":"ea77698629c14dbfa294c81667ef5180.16","lat":22.74854,"lng":88.517884,"name":"Roadside Shiva Temple "},"7d85eeb688bc412393da8b95e7c35823.16":{"guid":"7d85eeb688bc412393da8b95e7c35823.16","lat":22.751555,"lng":88.519227,"name":"Kulberia Sri Sri Radhakrishna Jiyu Mandir"},"1ba77e5a2db9455aa99e4b1b341cd735.16":{"guid":"1ba77e5a2db9455aa99e4b1b341cd735.16","lat":22.70571,"lng":88.358057,"name":"Kali Mata Temple"},"43be13eecb934ddc9b96653bc0874894.16":{"guid":"43be13eecb934ddc9b96653bc0874894.16","lat":22.490427,"lng":88.40578,"name":"Mukundapur Radhakrishna Mandir "},"3dba0c94cd094e1fb0edfd1e0764ec22.16":{"guid":"3dba0c94cd094e1fb0edfd1e0764ec22.16","lat":22.566805,"lng":88.401719,"name":"Children Playing Mural"},"8367264647dd4f2e83a17b783268b988.16":{"guid":"8367264647dd4f2e83a17b783268b988.16","lat":22.560342,"lng":88.416904,"name":"Buro Babar Shib Mandir"},"114f1237ee5a420d979b7118cf4ad72e.16":{"guid":"114f1237ee5a420d979b7118cf4ad72e.16","lat":22.57225,"lng":88.43324,"name":"Fountain"},"1c5f79d0cf4c4ba4bf2b952a1e2b7abd.16":{"guid":"1c5f79d0cf4c4ba4bf2b952a1e2b7abd.16","lat":22.591309,"lng":88.39309,"name":"The Chinese Lady Statue"},"49b40fecb2524763b5bac0bcd45ebe05.16":{"guid":"49b40fecb2524763b5bac0bcd45ebe05.16","lat":22.603885,"lng":88.423858,"name":"Sani Kali mondir"},"38c1526a94df40f6bce3021ae9a8374d.16":{"guid":"38c1526a94df40f6bce3021ae9a8374d.16","lat":22.626893,"lng":88.401372,"name":"Purba Sinthee Ramkrishna Sangha"},"b656a99c4bba4dce81c9a7b243ffdae8.16":{"guid":"b656a99c4bba4dce81c9a7b243ffdae8.16","lat":22.494628,"lng":88.398158,"name":"Soni Temple"},"002c8fb503d442f1a0dde469756531ab.16":{"guid":"002c8fb503d442f1a0dde469756531ab.16","lat":22.544757,"lng":88.377681,"name":"Shibtala Math Entrance"},"8e6d8a34679c41eb95d2607a2ad90687.16":{"guid":"8e6d8a34679c41eb95d2607a2ad90687.16","lat":22.594375,"lng":88.385716,"name":"Shiv Mandir"},"3917b1dcb58546c993c63de001fe685f.16":{"guid":"3917b1dcb58546c993c63de001fe685f.16","lat":22.601362,"lng":88.383555,"name":"Kolkata Railway"},"f1d735d8f80e4583bb35dcb5e50cba9c.16":{"guid":"f1d735d8f80e4583bb35dcb5e50cba9c.16","lat":22.60515,"lng":88.391938,"name":"Shib Mandir "},"0a4c38ab79cf430f9020b29af3441451.16":{"guid":"0a4c38ab79cf430f9020b29af3441451.16","lat":22.551353,"lng":88.419366,"name":"Trinathpally Children's Park"},"85540761552f428186b19904eb205982.16":{"guid":"85540761552f428186b19904eb205982.16","lat":22.559189,"lng":88.414009,"name":"Sukanta Nagar Soni Mandir"},"7b7f52b4d70948f5acf231e1bdbe2b73.16":{"guid":"7b7f52b4d70948f5acf231e1bdbe2b73.16","lat":22.844818,"lng":88.377095,"name":"Shyamnagar Park"},"4560737ddccb458da98bbc404e954797.16":{"guid":"4560737ddccb458da98bbc404e954797.16","lat":22.611406,"lng":88.407271,"name":"Chinese Budhist Temple"},"15b1bed31e984c6fa83fb09cc2029aa3.16":{"guid":"15b1bed31e984c6fa83fb09cc2029aa3.16","lat":22.582637,"lng":88.421448,"name":"Karunamayee Park Gate"},"889ca74d451d4c218aa574328dfa660d.16":{"guid":"889ca74d451d4c218aa574328dfa660d.16","lat":22.600618,"lng":88.370011,"name":"Statue "},"655c6255409e4fc78938b19028742723.16":{"guid":"655c6255409e4fc78938b19028742723.16","lat":22.599866,"lng":88.376899,"name":"Desbondhu Chittaranjan Das Statue In Desbondhu Park","isEx":true},"fcf3fff0799f4bf0a42ef98c4f7ca057.16":{"guid":"fcf3fff0799f4bf0a42ef98c4f7ca057.16","lat":22.564362,"lng":88.395192,"name":" Sister Nibedita Statue"},"cfff80a7f8a94229a9c028d0be2305e0.16":{"guid":"cfff80a7f8a94229a9c028d0be2305e0.16","lat":22.844836,"lng":88.380692,"name":"454600 Ltrs Tank"},"b2a7012f89f84714beaf587eb57ce29a.16":{"guid":"b2a7012f89f84714beaf587eb57ce29a.16","lat":22.840352,"lng":88.382265,"name":"Shri Hanuman Mandir"},"853a9a61006f4e0e84bb213c9aad1dbb.16":{"guid":"853a9a61006f4e0e84bb213c9aad1dbb.16","lat":22.900954,"lng":88.396009,"name":"Pipulpati water supply"},"8bc60151a1f342feaadb6bf2df7d28fb.16":{"guid":"8bc60151a1f342feaadb6bf2df7d28fb.16","lat":22.59561,"lng":88.359182,"name":"Netaji Wall Mural at B.K.Paul Park"},"cef28aaba90c4ba4a57042f2fb3665e2.16":{"guid":"cef28aaba90c4ba4a57042f2fb3665e2.16","lat":22.595508,"lng":88.355184,"name":"Jagannath Mandir"},"20b96fc2dd734ac9a06fdbd15d9c6a39.16":{"guid":"20b96fc2dd734ac9a06fdbd15d9c6a39.16","lat":22.577123,"lng":88.285865,"name":"Anukul Satsang Kendra"},"d50a00720c8d453584564269f715c7ed.16":{"guid":"d50a00720c8d453584564269f715c7ed.16","lat":22.514564,"lng":88.346373,"name":"Bust Of Kavi Dijendra Lal Roy"},"fef73abc175146799875ebc613e1e23e.16":{"guid":"fef73abc175146799875ebc613e1e23e.16","lat":22.438988,"lng":88.416073,"name":"Doremon statue "},"126feacb6faf4226aa817acf1564160f.16":{"guid":"126feacb6faf4226aa817acf1564160f.16","lat":22.579067,"lng":88.471532,"name":"Swastika Landmark Narkel Square"},"b642da234b0547648e765e4e061f52b6.16":{"guid":"b642da234b0547648e765e4e061f52b6.16","lat":22.571029,"lng":88.388553,"name":"Statue of kazi nazrul islam"},"438bbccb7ae749cd8b7d74eac8b5c9d7.16":{"guid":"438bbccb7ae749cd8b7d74eac8b5c9d7.16","lat":22.512499,"lng":88.360081,"name":"Mumuksha Statue","isEx":true},"4859ab0e25cc4159b7bc179e714a60c2.16":{"guid":"4859ab0e25cc4159b7bc179e714a60c2.16","lat":22.491194,"lng":88.363658,"name":"Netajj Subhash Chandra Basu Statue "},"cc73282896794af28a206a676e8acb64.16":{"guid":"cc73282896794af28a206a676e8acb64.16","lat":22.50085,"lng":88.334783,"name":"Shibaloy Under Banyan Tree"},"5c629430ea644a758240fea3cca2f0a8.16":{"guid":"5c629430ea644a758240fea3cca2f0a8.16","lat":22.486593,"lng":88.361534,"name":"bijoygarh maa tara hanuman temple."},"9cacba8104b346479a05e75dacebf880.16":{"guid":"9cacba8104b346479a05e75dacebf880.16","lat":22.468956,"lng":88.38671,"name":"Bust of Biplabi Bagha Jatin"},"fcba968e0fa343fcaafcdec9f52d54bb.16":{"guid":"fcba968e0fa343fcaafcdec9f52d54bb.16","lat":22.454398,"lng":88.38755,"name":"Statue of Netaji Subhash Chandra Basu"},"6f34f96f616b460c81cdd7911f5720c7.16":{"guid":"6f34f96f616b460c81cdd7911f5720c7.16","lat":22.879211,"lng":88.426163,"name":"Vidyasagar Field Water Tank"},"3f822d0d3bcc4add8767d6c90c08fb50.16":{"guid":"3f822d0d3bcc4add8767d6c90c08fb50.16","lat":22.846987,"lng":88.37902,"name":"Neogi Para Shiv Temple "},"98c1e371a73c4b05a709033a2390b2e5.16":{"guid":"98c1e371a73c4b05a709033a2390b2e5.16","lat":22.54565,"lng":88.377159,"name":"Lokenath Baba Mandir"},"f6ec8b282d9944c5a320d55988cc4c15.16":{"guid":"f6ec8b282d9944c5a320d55988cc4c15.16","lat":22.45867,"lng":88.325313,"name":"Sitala Mandir"},"cf78e43b7ba344a4ae958deecdc9c86d.16":{"guid":"cf78e43b7ba344a4ae958deecdc9c86d.16","lat":22.501361,"lng":88.351533,"name":"Paschim Banga Rajya Sangeet Academy"},"2cf4409f47e341ed831f43ae4e7329c2.16":{"guid":"2cf4409f47e341ed831f43ae4e7329c2.16","lat":22.49486,"lng":88.36595,"name":"Sri Sri Kaibalya Dham"},"ac9f259a21164211b75319587a21c8c4.16":{"guid":"ac9f259a21164211b75319587a21c8c4.16","lat":22.456275,"lng":88.385395,"name":"Shani Temple"},"9e421e6b35fa420aadc7361ea2d5c787.16":{"guid":"9e421e6b35fa420aadc7361ea2d5c787.16","lat":22.494069,"lng":88.40834,"name":"Councillor Office Green Park"},"36311aaa7ed44a07ad5422340445b63c.16":{"guid":"36311aaa7ed44a07ad5422340445b63c.16","lat":22.931589,"lng":88.443237,"name":"Itkhola Saani Mandir"},"76e78d2f9586420a84c0ec100255400a.16":{"guid":"76e78d2f9586420a84c0ec100255400a.16","lat":22.968506,"lng":88.466386,"name":"Kalyani Railway Station"},"10815788e2994f1a9d4d0aa8ba5f55d0.16":{"guid":"10815788e2994f1a9d4d0aa8ba5f55d0.16","lat":22.944988,"lng":88.450523,"name":"Kanchrapara Railway Station"},"5e5bf75b2171403397e5e443adfc4678.16":{"guid":"5e5bf75b2171403397e5e443adfc4678.16","lat":22.888022,"lng":88.417772,"name":"The Great Professor Rishi Bankim Chandra Chattopadhyay Wall Mural."},"8dece1fd47b54924a635be644f806735.16":{"guid":"8dece1fd47b54924a635be644f806735.16","lat":22.893127,"lng":88.425253,"name":"Naihati Football Stadium"},"4a39834651bd418881a793fe3275d48e.16":{"guid":"4a39834651bd418881a793fe3275d48e.16","lat":22.627325,"lng":88.397255,"name":"Anuranjan Children park"},"1f1141caa5034ab296cb83cddaa5053f.16":{"guid":"1f1141caa5034ab296cb83cddaa5053f.16","lat":22.529649,"lng":88.25083,"name":"Notun Pole Tara Maa Mandir Entrance"},"ae8b9dd2fedd460fa0eead7dee761f22.16":{"guid":"ae8b9dd2fedd460fa0eead7dee761f22.16","lat":22.572858,"lng":88.383926,"name":"young vivekananda mural"},"29c12bc249ef4be2805c88a47c9ee7fb.16":{"guid":"29c12bc249ef4be2805c88a47c9ee7fb.16","lat":22.539077,"lng":88.386487,"name":"Sri Lingraj Mahadev Mandir"},"be06468328324a5cb1aee84af55da8c2.16":{"guid":"be06468328324a5cb1aee84af55da8c2.16","lat":22.515571,"lng":88.341458,"name":"Durga Statue"},"2871b1a48a604ce09b68f0d73b3b8102.16":{"guid":"2871b1a48a604ce09b68f0d73b3b8102.16","lat":22.503238,"lng":88.344884,"name":"Bust of Indira Gandhi"},"51eaf3505f944e2296590ae8fbed9487.16":{"guid":"51eaf3505f944e2296590ae8fbed9487.16","lat":22.496046,"lng":88.361173,"name":"Swamiji Uddyan "},"f4f014729ef0458c9ba5813f0f1ff495.16":{"guid":"f4f014729ef0458c9ba5813f0f1ff495.16","lat":22.952616,"lng":88.42398,"name":"The Salvation Army Church"},"47a49bbf57b24bb994130309062e43ae.16":{"guid":"47a49bbf57b24bb994130309062e43ae.16","lat":22.922196,"lng":88.43247,"name":"Sankar Swarup Yogmoth "},"1df4b4b4ac5f4c358555f62545ef2f47.16":{"guid":"1df4b4b4ac5f4c358555f62545ef2f47.16","lat":22.831442,"lng":88.393504,"name":"Netaji Subhas Chandra Bose Mural"},"8b23893125cd40dbab1b48e4f01ba127.16":{"guid":"8b23893125cd40dbab1b48e4f01ba127.16","lat":22.568525,"lng":88.51415,"name":"Roadside Artwork At Shapoorji "},"72cf5099178e4731bf4d76456d0cb729.16":{"guid":"72cf5099178e4731bf4d76456d0cb729.16","lat":22.577897,"lng":88.290837,"name":"Hanumana Mandir"},"695ea41af6d848a9846c0ef169f55ce5.16":{"guid":"695ea41af6d848a9846c0ef169f55ce5.16","lat":22.502097,"lng":88.518374,"name":"Roadside Artwork "},"4b080d2f646b44d08b9e03091ab4b302.16":{"guid":"4b080d2f646b44d08b9e03091ab4b302.16","lat":22.506801,"lng":88.345157,"name":"Tollygunge Post Office"},"27276cf254fd4391a2799dc68f4fd684.16":{"guid":"27276cf254fd4391a2799dc68f4fd684.16","lat":22.513572,"lng":88.393143,"name":"Bust of Kishore Kumar"},"fe83c685b4af4da49fae4f3f1fa4070d.16":{"guid":"fe83c685b4af4da49fae4f3f1fa4070d.16","lat":22.515432,"lng":88.355665,"name":"Shiva Linga Shrine"},"64d2dbb52bd84548ab86636092c7a84c.16":{"guid":"64d2dbb52bd84548ab86636092c7a84c.16","lat":22.505872,"lng":88.340513,"name":"Maa Kali Temple "},"9361aded2545487da622116515e977a0.16":{"guid":"9361aded2545487da622116515e977a0.16","lat":22.465784,"lng":88.391016,"name":"Shahid Khudiram Metro Station "},"4f850174d5f740209364a574b7d01f73.16":{"guid":"4f850174d5f740209364a574b7d01f73.16","lat":22.979037,"lng":88.442343,"name":"Bengal Cricket Association"},"1009bb9504ec4212a2b0ef8b5b8f876f.16":{"guid":"1009bb9504ec4212a2b0ef8b5b8f876f.16","lat":22.972536,"lng":88.44329,"name":"Lake Park"},"c2c472c3c2874a1eb8d7ea380a025b04.16":{"guid":"c2c472c3c2874a1eb8d7ea380a025b04.16","lat":22.95284,"lng":88.415779,"name":"Kali Maa Temple"},"34a66b5e99214dd5ab0757514b21971b.16":{"guid":"34a66b5e99214dd5ab0757514b21971b.16","lat":22.943436,"lng":88.460548,"name":"jonepur water tank"},"53365d2f176e451e9a3e8c29fd10ea03.16":{"guid":"53365d2f176e451e9a3e8c29fd10ea03.16","lat":22.928001,"lng":88.443264,"name":"Doltala Mandir"},"8455e4b52bf0440fb3ebe45ba204b577.16":{"guid":"8455e4b52bf0440fb3ebe45ba204b577.16","lat":22.920468,"lng":88.436623,"name":"Halisahar Railway Station"},"032b49d73a6246d59f37cbef88d359f1.16":{"guid":"032b49d73a6246d59f37cbef88d359f1.16","lat":22.889571,"lng":88.415903,"name":"Mahakali Temple"},"09088e5f51cc47f7b430a09936ed842d.16":{"guid":"09088e5f51cc47f7b430a09936ed842d.16","lat":22.889033,"lng":88.424471,"name":"6 no bijoynagor water tank"},"bc77354548054f6eb50e4a9e3fdcaa3f.16":{"guid":"bc77354548054f6eb50e4a9e3fdcaa3f.16","lat":22.856204,"lng":88.380051,"name":"Shri Shyam Mandir"},"089d01b8d28849e59bf7db2e6d20c78c.16":{"guid":"089d01b8d28849e59bf7db2e6d20c78c.16","lat":22.844389,"lng":88.375941,"name":"vidyasagar park"},"4c1aef75f4cb4f00b0a259aeac287596.16":{"guid":"4c1aef75f4cb4f00b0a259aeac287596.16","lat":22.841869,"lng":88.381367,"name":"Athpur Panchanan Tala Temple"},"c2f29d8b76404e1caa3c70891621aa89.16":{"guid":"c2f29d8b76404e1caa3c70891621aa89.16","lat":22.837574,"lng":88.388995,"name":"Professore Debendra Mohan Bose{statue}sj"},"19f23e9b559e434792ae124c5ee85fec.16":{"guid":"19f23e9b559e434792ae124c5ee85fec.16","lat":22.831977,"lng":88.390512,"name":"Swami Vivekananda Mural"},"29f9b99ce8b745c89e3605a4e9357513.16":{"guid":"29f9b99ce8b745c89e3605a4e9357513.16","lat":22.596999,"lng":88.36514,"name":"Lal Baba Mandir"},"8b84753346b44b8d81d966fa2e419d71.16":{"guid":"8b84753346b44b8d81d966fa2e419d71.16","lat":22.513856,"lng":88.352,"name":"Small shiv temple"},"a3e59947fd9e415d81634aad7d47775b.16":{"guid":"a3e59947fd9e415d81634aad7d47775b.16","lat":22.505485,"lng":88.336535,"name":"Sai Jhoolelal Mandir"},"da0d4218e00a46668be493ed17fee607.16":{"guid":"da0d4218e00a46668be493ed17fee607.16","lat":22.882245,"lng":88.42528,"name":"Sani Temple"},"d139fe75aa1d4890a0a668fa6294ae96.16":{"guid":"d139fe75aa1d4890a0a668fa6294ae96.16","lat":22.886034,"lng":88.393295,"name":"Shiv Mandir"},"d2bef7d66892476c8dfb864d87741da7.16":{"guid":"d2bef7d66892476c8dfb864d87741da7.16","lat":22.590152,"lng":88.291017,"name":"Tara Maa Mandir"},"1d4e2ee947014f78bc753177f83bb712.16":{"guid":"1d4e2ee947014f78bc753177f83bb712.16","lat":22.473367,"lng":88.388768,"name":"Fountain Lights at Biswa Bangla Sishu Udyan"},"1826d7da3c1945dda22b5b9c194dc833.16":{"guid":"1826d7da3c1945dda22b5b9c194dc833.16","lat":22.470792,"lng":88.385311,"name":"Statue of Swami Vivekananda"},"0fc462048f1448a68769339b34f356fb.16":{"guid":"0fc462048f1448a68769339b34f356fb.16","lat":22.594801,"lng":88.308145,"name":"Tara Ma Temple"},"4bbfa13c83714e0c9ad2069b3d5b1f56.16":{"guid":"4bbfa13c83714e0c9ad2069b3d5b1f56.16","lat":22.46065,"lng":88.397482,"name":"Sahapara Shitala Mandir"},"ee78f49114334c74844a1c2f2167bf68.16":{"guid":"ee78f49114334c74844a1c2f2167bf68.16","lat":22.476493,"lng":88.365523,"name":"Aurobindo Children's Park"},"b5221965f4cb46879c0e886f553e958e.16":{"guid":"b5221965f4cb46879c0e886f553e958e.16","lat":22.964395,"lng":88.399442,"name":"Ananta Basudeba Mandir"},"c723a6fa4caf471799409e73e7376f66.16":{"guid":"c723a6fa4caf471799409e73e7376f66.16","lat":22.946296,"lng":88.437949,"name":"Statue of Netaji"},"d5159765269447d183f667909f83644f.16":{"guid":"d5159765269447d183f667909f83644f.16","lat":22.929029,"lng":88.430595,"name":"Sri Sri Shitala mata mandir"},"6da057a650d84c3da5219633235245bf.16":{"guid":"6da057a650d84c3da5219633235245bf.16","lat":22.964606,"lng":88.462814,"name":"Swami Vivekananda Statue"},"330e616b4f1e488589e7ba2df57e9361.16":{"guid":"330e616b4f1e488589e7ba2df57e9361.16","lat":22.892362,"lng":88.417053,"name":"Temple of Lord Shiva"},"c0c0881863eb4ff299994becdc6cb5ff.16":{"guid":"c0c0881863eb4ff299994becdc6cb5ff.16","lat":22.883908,"lng":88.438695,"name":"shree shani mandir"},"c018a8c7794d4aae80c7fd1421438705.16":{"guid":"c018a8c7794d4aae80c7fd1421438705.16","lat":22.724939,"lng":88.480933,"name":"Sarada Mandir "},"99b1822133034138acc19c74d42abe0f.16":{"guid":"99b1822133034138acc19c74d42abe0f.16","lat":22.768756,"lng":88.542071,"name":"Dattapukur post office "},"dfbd84038dd64323bbb767d601071a70.16":{"guid":"dfbd84038dd64323bbb767d601071a70.16","lat":22.567246,"lng":88.511489,"name":"Masjid in Shapoorji"},"433ec442d8a2468a83e158c375f13d20.16":{"guid":"433ec442d8a2468a83e158c375f13d20.16","lat":22.56186,"lng":88.417262,"name":"Shiv Parvati Temple"},"044dd41ed7944dcf85ef0b5f98c0386c.16":{"guid":"044dd41ed7944dcf85ef0b5f98c0386c.16","lat":22.541416,"lng":88.354196,"name":"Bust of Bhagat Singh","isEx":true},"32d195c208754424a5fcc10b538db5ea.16":{"guid":"32d195c208754424a5fcc10b538db5ea.16","lat":22.564061,"lng":88.320665,"name":"Swami Vivekananda Statue"},"0b8f083048174601a708be7d44b7f4cc.16":{"guid":"0b8f083048174601a708be7d44b7f4cc.16","lat":22.564692,"lng":88.313083,"name":"Shree Shree Sarbamangala Kaali Mata Mandir"},"52e526204e4e4e6886d69521732f42c1.16":{"guid":"52e526204e4e4e6886d69521732f42c1.16","lat":22.573427,"lng":88.310077,"name":"Milan Mandir Public Library"},"0f628bdcd793458593aa9c686d0c1f9c.16":{"guid":"0f628bdcd793458593aa9c686d0c1f9c.16","lat":22.578312,"lng":88.317298,"name":"Ramkrishna and Sharoda Temple"},"51aa3567547f4017ba280f26994b378e.16":{"guid":"51aa3567547f4017ba280f26994b378e.16","lat":22.573906,"lng":88.323732,"name":"Lokenath Baba Temple"},"db39a90a178f4461ba3cdeb5d6767257.16":{"guid":"db39a90a178f4461ba3cdeb5d6767257.16","lat":22.581289,"lng":88.322513,"name":"Statue of Netaji Subhash Chandra Bose"},"2baf973091a0427fa90c5593f3f18099.16":{"guid":"2baf973091a0427fa90c5593f3f18099.16","lat":22.582718,"lng":88.317731,"name":"Shree Shree Dashamahavidya Temple"},"7865b7260f9f401695aff828019a2f97.16":{"guid":"7865b7260f9f401695aff828019a2f97.16","lat":22.592225,"lng":88.315253,"name":"Art Sculpture 2 Human Face On Tree"},"f0d4fbf269ab4241aa2d0852ac3d0742.16":{"guid":"f0d4fbf269ab4241aa2d0852ac3d0742.16","lat":22.592702,"lng":88.312658,"name":"Ichapur Water Supply"},"5386026d9a4a4064b7c7c19658393603.16":{"guid":"5386026d9a4a4064b7c7c19658393603.16","lat":22.502617,"lng":88.225449,"name":"Masjid-E-Taiyeb"},"9a2f1dd78581465ea441e98f174a2137.16":{"guid":"9a2f1dd78581465ea441e98f174a2137.16","lat":22.507289,"lng":88.349522,"name":"Maa Kali and Biswakarma Temple"},"cba78fef9020443984e9f00cf8d59a30.16":{"guid":"cba78fef9020443984e9f00cf8d59a30.16","lat":22.509807,"lng":88.392516,"name":"Shri Shri Sitala Mandir"},"cde7f6a8b5804fd69b052c5d1ba64471.16":{"guid":"cde7f6a8b5804fd69b052c5d1ba64471.16","lat":22.486634,"lng":88.381396,"name":"Sitala Mandir"},"30e21dd282b140fe9789180a1e8fd1c4.16":{"guid":"30e21dd282b140fe9789180a1e8fd1c4.16","lat":22.462357,"lng":88.394827,"name":"Shree Shree Barobaba Kaalimata Mandir"},"3f50e034bf8c4e378532926536cc236a.16":{"guid":"3f50e034bf8c4e378532926536cc236a.16","lat":22.463824,"lng":88.386721,"name":"Satyananda Shakti Bad Math"},"9fe62b368ef242629cee970e03219ff9.16":{"guid":"9fe62b368ef242629cee970e03219ff9.16","lat":22.446746,"lng":88.389274,"name":"Sri Sri Grohoraj O Kali Mandir"},"63a0768f6bf749cab1268ab07b8148dc.16":{"guid":"63a0768f6bf749cab1268ab07b8148dc.16","lat":22.975424,"lng":88.434419,"name":"Rabindranath Tagore Statue","isEx":true},"c63e74aca5b94fefb35a55151b6a6b06.16":{"guid":"c63e74aca5b94fefb35a55151b6a6b06.16","lat":22.944869,"lng":88.45167,"name":"lord ganesh with flute"},"bf764ed2f56f4c5dab43b9552644b951.16":{"guid":"bf764ed2f56f4c5dab43b9552644b951.16","lat":22.951808,"lng":88.426427,"name":"Shani Temple"},"cea9699b720d46119e69ac975757fb1a.16":{"guid":"cea9699b720d46119e69ac975757fb1a.16","lat":22.955463,"lng":88.42028,"name":"Bagmore Water Tank"},"81a5aa1596354ce88b92fee8b117859a.16":{"guid":"81a5aa1596354ce88b92fee8b117859a.16","lat":22.938174,"lng":88.447027,"name":"Statue of Bidhan Chandra Roy"},"9868b9af28c14ef8988644ae12390ef4.16":{"guid":"9868b9af28c14ef8988644ae12390ef4.16","lat":22.929145,"lng":88.435798,"name":"Bramhin temple"},"41fba91a917b4539a72ee0c571736d63.16":{"guid":"41fba91a917b4539a72ee0c571736d63.16","lat":22.885281,"lng":88.391171,"name":"Gaji Saheber Dorga Sharif"},"a9fe35c670f74aac8a5b7da679b93566.16":{"guid":"a9fe35c670f74aac8a5b7da679b93566.16","lat":22.888747,"lng":88.423776,"name":"Maa Kali Temple"},"9a44d9acb09e48ed8016c719740f4c93.16":{"guid":"9a44d9acb09e48ed8016c719740f4c93.16","lat":22.889214,"lng":88.427178,"name":"Children Park"},"d712eee283e043fe8b2dde92ce782420.16":{"guid":"d712eee283e043fe8b2dde92ce782420.16","lat":22.838317,"lng":88.391029,"name":"Lord Buddha Temple"},"a6b8a60f07c245d2b6700628d2fe7bae.16":{"guid":"a6b8a60f07c245d2b6700628d2fe7bae.16","lat":22.827451,"lng":88.376859,"name":"Mural Of Baba Loknath"},"e1c6defcd804407fb72621d3e3996c38.16":{"guid":"e1c6defcd804407fb72621d3e3996c38.16","lat":22.770718,"lng":88.521139,"name":"Buromar Dalan"},"ed0c96d299844d90b385c449ae592f78.16":{"guid":"ed0c96d299844d90b385c449ae592f78.16","lat":22.769025,"lng":88.540867,"name":"Murals at Dattapukur station "},"0f0e5bbd53ee4125906b76e7815de32b.16":{"guid":"0f0e5bbd53ee4125906b76e7815de32b.16","lat":22.765126,"lng":88.5418,"name":"Sani Mandir"},"f4a6e0fc1c5b42058537bcfe8a59ba31.16":{"guid":"f4a6e0fc1c5b42058537bcfe8a59ba31.16","lat":22.764843,"lng":88.543972,"name":"shib o kali mandir"},"6ed732b189d547eb9741d3b04f1d6d25.16":{"guid":"6ed732b189d547eb9741d3b04f1d6d25.16","lat":22.775047,"lng":88.545686,"name":"Karunamoyi Library"},"aa9317d080604eff87845ffdcb90484d.16":{"guid":"aa9317d080604eff87845ffdcb90484d.16","lat":22.765187,"lng":88.530917,"name":"DC Tarun Sangha Playground"},"8c623c9ab77040da8300cbfbf58f084d.16":{"guid":"8c623c9ab77040da8300cbfbf58f084d.16","lat":22.759707,"lng":88.514536,"name":"Temple of Lord Shiva and Kaali"},"16e905dce598433999a7e43258a18da8.16":{"guid":"16e905dce598433999a7e43258a18da8.16","lat":22.749232,"lng":88.516432,"name":"Sri Sri Radhagobindo Mandir "},"5294e974936745b58e110ac2b75b2667.16":{"guid":"5294e974936745b58e110ac2b75b2667.16","lat":22.719694,"lng":88.481239,"name":"Sri Sri Shani o Kali Mandir"},"db89dff1fe0949c2aa36ba0785cda66e.16":{"guid":"db89dff1fe0949c2aa36ba0785cda66e.16","lat":22.719531,"lng":88.473154,"name":"Hindu Temple (Chandi Mandir)"},"ca59c27eca7a47edac7d18e8ec345242.16":{"guid":"ca59c27eca7a47edac7d18e8ec345242.16","lat":22.704235,"lng":88.346952,"name":"Shakuntala Kali Temple"},"f867601bc4e749c2a8ce343c9cc7f1b4.16":{"guid":"f867601bc4e749c2a8ce343c9cc7f1b4.16","lat":22.593382,"lng":88.473374,"name":"Swami Vivekanand Statue"},"56dbf0e4ad1342708fbe415c9dbefc00.16":{"guid":"56dbf0e4ad1342708fbe415c9dbefc00.16","lat":22.582535,"lng":88.426977,"name":"Sculpture Of The Classic Indian Maiden"},"66ad12b1c86b497c9a82bc7361037b92.16":{"guid":"66ad12b1c86b497c9a82bc7361037b92.16","lat":22.569152,"lng":88.421489,"name":"Eiffel Tower ","isEx":true},"c2a19d868ee6456382c6251ef10e167d.16":{"guid":"c2a19d868ee6456382c6251ef10e167d.16","lat":22.760225,"lng":88.370953,"name":"Barrackpore Railway Station"},"9f55df465cc642268d330a9228f43f4f.16":{"guid":"9f55df465cc642268d330a9228f43f4f.16","lat":22.603292,"lng":88.381549,"name":"Railway Water Tank"},"ba0e33ee72f94865aab08e02440df486.16":{"guid":"ba0e33ee72f94865aab08e02440df486.16","lat":22.507979,"lng":88.434356,"name":"Maa Manasha Temple"},"5414f2b0564549e897b1f4919e27c96c.16":{"guid":"5414f2b0564549e897b1f4919e27c96c.16","lat":22.495932,"lng":88.406416,"name":"Purbalok Kalibarie"},"6ebeb9e11b324f7bbf5e36d68ce88451.16":{"guid":"6ebeb9e11b324f7bbf5e36d68ce88451.16","lat":22.487948,"lng":88.366215,"name":"Sitala Temple"},"cb17b2e78fbc4c2ea15ba4166a34696c.16":{"guid":"cb17b2e78fbc4c2ea15ba4166a34696c.16","lat":22.510074,"lng":88.360043,"name":"Wooden durga monument","isEx":true},"3087354fefdf4fbaa4f96af4bba47cd4.16":{"guid":"3087354fefdf4fbaa4f96af4bba47cd4.16","lat":22.513085,"lng":88.34611,"name":"Shib tara mandir"},"fbd3ea146eee4ad3b321974203748250.16":{"guid":"fbd3ea146eee4ad3b321974203748250.16","lat":22.520346,"lng":88.34676,"name":"Greek Orthodox Church"},"306f032eeb2e468fa310058b118f0abf.16":{"guid":"306f032eeb2e468fa310058b118f0abf.16","lat":22.528213,"lng":88.347395,"name":"Satya Ranjan Bakshi Smriti Uddyan"},"7bec4ebdb73f4636b60d90f23253464b.16":{"guid":"7bec4ebdb73f4636b60d90f23253464b.16","lat":22.543133,"lng":88.367622,"name":"Masjid-Un-Noor","isEx":true},"1bf6f2dcb6a3490888ee405255dc4eb2.16":{"guid":"1bf6f2dcb6a3490888ee405255dc4eb2.16","lat":22.549201,"lng":88.348446,"name":"Mortar Near Maidan Metro","isEx":true},"aaecc2d4a2954f84a67caef2ab4b09d7.16":{"guid":"aaecc2d4a2954f84a67caef2ab4b09d7.16","lat":22.577455,"lng":88.392263,"name":"Fountain At Shuvash Park"},"70d105d14ed5447d82eb192e5fb8befa.16":{"guid":"70d105d14ed5447d82eb192e5fb8befa.16","lat":22.591972,"lng":88.428276,"name":"Rabindra Park","isEx":true},"2a5695fe6b0243e28e3fb68b9452be18.16":{"guid":"2a5695fe6b0243e28e3fb68b9452be18.16","lat":22.542144,"lng":88.367988,"name":"Ruqaiya Park ","isEx":true},"8565afcc025d4f8ebfbcd083f44fc4f4.16":{"guid":"8565afcc025d4f8ebfbcd083f44fc4f4.16","lat":22.566413,"lng":88.417757,"name":"Gate Of Heaven"},"1997c0c1cb464706a77f1ddb9a496363.16":{"guid":"1997c0c1cb464706a77f1ddb9a496363.16","lat":22.571657,"lng":88.407958,"name":"Salt Lake Stadium Gate 1"},"6b07e509c7a2496588399aa11dbf72c8.16":{"guid":"6b07e509c7a2496588399aa11dbf72c8.16","lat":22.570642,"lng":88.402976,"name":"Roadside Temple"},"603446eed75044c1a882760cdecc6ce9.16":{"guid":"603446eed75044c1a882760cdecc6ce9.16","lat":22.602527,"lng":88.401007,"name":"Baba Lokenath Mandir"},"ed21f528c42f432a9005b7840cd97569.16":{"guid":"ed21f528c42f432a9005b7840cd97569.16","lat":22.6052,"lng":88.403536,"name":"Freedom Fighter Netaji"},"5e2fd80924dc4cb29d1840dc0c0c178f.16":{"guid":"5e2fd80924dc4cb29d1840dc0c0c178f.16","lat":22.607329,"lng":88.402838,"name":"Sri sri kali shoni mandir"},"5fe6709a829644489213f2d7fae3ed07.16":{"guid":"5fe6709a829644489213f2d7fae3ed07.16","lat":22.608061,"lng":88.398429,"name":"Bust of Pijush Chandra Ghosh"},"24c68671ec8d4d67ab8331576fda96f9.16":{"guid":"24c68671ec8d4d67ab8331576fda96f9.16","lat":22.573549,"lng":88.385284,"name":"Sir Gurudas Banerjee Halt"},"5550f495efdc4a4c994391c2bcc39dbb.16":{"guid":"5550f495efdc4a4c994391c2bcc39dbb.16","lat":22.564382,"lng":88.296558,"name":"Dinanta Ashar Kali Temple"},"e701074cb3ac4dffbbf825c2faad5b8a.16":{"guid":"e701074cb3ac4dffbbf825c2faad5b8a.16","lat":22.567645,"lng":88.320101,"name":"Mural of Goddess Kali"},"ee50b44d68ea4281898252996ee1f09b.16":{"guid":"ee50b44d68ea4281898252996ee1f09b.16","lat":22.574061,"lng":88.319388,"name":"Maa manasa mandir"},"e8635d8a382941af8b7657fa652ebe80.16":{"guid":"e8635d8a382941af8b7657fa652ebe80.16","lat":22.569961,"lng":88.317663,"name":"Maa Tara Temple At Mandirtala"},"a820dcdf1840492c81eaad7d92e47acb.16":{"guid":"a820dcdf1840492c81eaad7d92e47acb.16","lat":22.573598,"lng":88.309073,"name":"Chhotoramtola Temple"},"0122299b8cf04338b40fa1896dd0256b.16":{"guid":"0122299b8cf04338b40fa1896dd0256b.16","lat":22.580263,"lng":88.319561,"name":"Bust of Swami Vivekananda"},"cb74888363f147f7be1e8b7ad5925364.16":{"guid":"cb74888363f147f7be1e8b7ad5925364.16","lat":22.578758,"lng":88.316403,"name":"Kasundia Lord Shiva Temple"},"633cc1b6620a4b8dbb4e31aba17b02bf.16":{"guid":"633cc1b6620a4b8dbb4e31aba17b02bf.16","lat":22.583692,"lng":88.32089,"name":"Bust of Rabindranath Tagore"},"8cdfa50ab9534beb8ab842909b213545.16":{"guid":"8cdfa50ab9534beb8ab842909b213545.16","lat":22.58236,"lng":88.319851,"name":"Bust of Rabindranath Tagore"},"5755a152c8824040bb827421bc664938.16":{"guid":"5755a152c8824040bb827421bc664938.16","lat":22.582821,"lng":88.314265,"name":"Entrance to Bhogini Nibedita Shishu Udyan"},"2fbda7ef89fd4f7d9d2afb9aa3149a6a.16":{"guid":"2fbda7ef89fd4f7d9d2afb9aa3149a6a.16","lat":22.582628,"lng":88.314057,"name":"Kid's Slide at Bhogini Nibedita Shishu Udyan"},"6ebbc40a00bb4625ad93dc17b9c41281.16":{"guid":"6ebbc40a00bb4625ad93dc17b9c41281.16","lat":22.577042,"lng":88.311264,"name":"Radhakrishna Temple"},"96ea9f944be64c94a4d9ba9389c639eb.16":{"guid":"96ea9f944be64c94a4d9ba9389c639eb.16","lat":22.584138,"lng":88.308024,"name":"Shib Temple near Notun Rasta"},"aa68aad23bf64faa9526031abbdfeb57.16":{"guid":"aa68aad23bf64faa9526031abbdfeb57.16","lat":22.578346,"lng":88.303907,"name":"Statue Of Doctor Bidhan Chandra Roy"},"6a95bf402f1546bf893047e63620039e.16":{"guid":"6a95bf402f1546bf893047e63620039e.16","lat":22.587768,"lng":88.30976,"name":"Dumurjala Eco Park"},"f3e91d3d9c2b4e2686c472169ffcbebe.16":{"guid":"f3e91d3d9c2b4e2686c472169ffcbebe.16","lat":22.588461,"lng":88.306636,"name":"Shibaji Sangha Park","isEx":true},"3b1c81c2f97e46fca40164f166ece60b.16":{"guid":"3b1c81c2f97e46fca40164f166ece60b.16","lat":22.589555,"lng":88.298301,"name":"Katyani Mandir","isEx":true},"73166aa3cc4e447eab0727991290f32b.16":{"guid":"73166aa3cc4e447eab0727991290f32b.16","lat":22.580151,"lng":88.290247,"name":"Tapan Dutta Memorial Statue"},"d538c5c3280e427ca9c2f00a1217dfcf.16":{"guid":"d538c5c3280e427ca9c2f00a1217dfcf.16","lat":22.572891,"lng":88.284978,"name":"Sitala Mata Mandir"},"4b3cc432f07d4d9987dacdca83d8561e.16":{"guid":"4b3cc432f07d4d9987dacdca83d8561e.16","lat":22.580503,"lng":88.279589,"name":"Baro Babar Mandir"},"b1403cf3b0d54fa19477e95e62bc6c7d.16":{"guid":"b1403cf3b0d54fa19477e95e62bc6c7d.16","lat":22.581115,"lng":88.276074,"name":"Kali Mandir","isEx":true},"e6502b39fda14b57856d62d88a2b174f.16":{"guid":"e6502b39fda14b57856d62d88a2b174f.16","lat":22.579165,"lng":88.271581,"name":"No. 2 Moukhali Halderpara Masjid"},"ad9013cbc51a411eb756a0c210d034d6.16":{"guid":"ad9013cbc51a411eb756a0c210d034d6.16","lat":22.58215,"lng":88.270316,"name":"The Pentecostal Mission Church","isEx":true},"986e053b99b04ef59342c291f3d6e49e.16":{"guid":"986e053b99b04ef59342c291f3d6e49e.16","lat":22.582613,"lng":88.281801,"name":"Water Tower No. 2 Near Santragachi Junction"},"8fbc659254e340f2be7b48d8c20b3656.16":{"guid":"8fbc659254e340f2be7b48d8c20b3656.16","lat":22.508351,"lng":88.366661,"name":"Madhusudhan Mancha Dhakuria Kolkata "},"9d17c7d8fa3f478d8b4fcaa70dc4d2aa.16":{"guid":"9d17c7d8fa3f478d8b4fcaa70dc4d2aa.16","lat":22.478973,"lng":88.349042,"name":"DAYAMOYEE TEMPLE"},"24752925eac5488db688c8cd2b577b55.16":{"guid":"24752925eac5488db688c8cd2b577b55.16","lat":22.47083,"lng":88.381989,"name":"DipuBapuli Children park"},"c46c910de5f9426f9c5da7b4e3b368b7.16":{"guid":"c46c910de5f9426f9c5da7b4e3b368b7.16","lat":22.9762,"lng":88.429542,"name":"Kabiraj Memorial Platform"},"869ee8e34fe1497dacdeff268497d0a7.16":{"guid":"869ee8e34fe1497dacdeff268497d0a7.16","lat":22.943196,"lng":88.461233,"name":"Mary Immaculate church"},"5a64a074d4c14c718cc5d8f8e9a043b4.16":{"guid":"5a64a074d4c14c718cc5d8f8e9a043b4.16","lat":22.950088,"lng":88.44112,"name":"Water Tank Kanchrapara"},"657a533e7ce54bcdb54f59f091a8a7c5.16":{"guid":"657a533e7ce54bcdb54f59f091a8a7c5.16","lat":22.942224,"lng":88.414884,"name":"Assam Bangiya Saraswat Math"},"9140ceaf466344269236e6f9ca0d4d74.16":{"guid":"9140ceaf466344269236e6f9ca0d4d74.16","lat":22.931999,"lng":88.431785,"name":"Notun palli park"},"f760ea7a988e4b16bb16f52c84e1f626.16":{"guid":"f760ea7a988e4b16bb16f52c84e1f626.16","lat":22.922813,"lng":88.430145,"name":"Save tree save life"},"76c68509333f4e9d8851e5ab434dbd49.16":{"guid":"76c68509333f4e9d8851e5ab434dbd49.16","lat":22.92289,"lng":88.434165,"name":"Bust Of Ramakrishna"},"0a419079021b4dae9e65a9422f03d716.16":{"guid":"0a419079021b4dae9e65a9422f03d716.16","lat":22.920726,"lng":88.422537,"name":"Batala Shani Mandir"},"2b491e2456434c6ca673ff73a3be0a08.16":{"guid":"2b491e2456434c6ca673ff73a3be0a08.16","lat":22.913844,"lng":88.444694,"name":"Dighirpar Kali Temple"},"9b436c55f9ad46159fe46b5e442b5472.16":{"guid":"9b436c55f9ad46159fe46b5e442b5472.16","lat":22.89729,"lng":88.410563,"name":"Abu Simble Temple's replica at Naihati Goalapara Park","isEx":true},"16c74716473743898164572fe61f8b54.16":{"guid":"16c74716473743898164572fe61f8b54.16","lat":22.893678,"lng":88.412715,"name":"Old Shiva Temple"},"822f5078450444cd98788fe735dc5029.16":{"guid":"822f5078450444cd98788fe735dc5029.16","lat":22.88831,"lng":88.412156,"name":"Naihati Swapnobithi Park","isEx":true},"d3d047eda58b42bb9653d9f4328528ba.16":{"guid":"d3d047eda58b42bb9653d9f4328528ba.16","lat":22.881562,"lng":88.420469,"name":"Maa Shitala Temple"},"983dce2359b047dda3e3c80ba190ceaf.16":{"guid":"983dce2359b047dda3e3c80ba190ceaf.16","lat":22.884621,"lng":88.413993,"name":"Buro Shib Mandir"},"9c50beb59a964383891e3019c4292b93.16":{"guid":"9c50beb59a964383891e3019c4292b93.16","lat":22.879686,"lng":88.421648,"name":"Lord Biswa Karma Temple"},"b2bbb7e4509f421cb487d51ec101ce2c.16":{"guid":"b2bbb7e4509f421cb487d51ec101ce2c.16","lat":22.876937,"lng":88.414213,"name":"Nimbagan Overhead Water Tank"},"e53119e4495240708cadde80325eb5bb.16":{"guid":"e53119e4495240708cadde80325eb5bb.16","lat":22.87363,"lng":88.403803,"name":"Roopdass Babur Ghat"},"d07e582929ce46579a591e10e5a035e3.16":{"guid":"d07e582929ce46579a591e10e5a035e3.16","lat":22.874425,"lng":88.410144,"name":"Temple of Lord Shiva"},"099722f660c140f282ee2e9fdc9d2526.16":{"guid":"099722f660c140f282ee2e9fdc9d2526.16","lat":22.829492,"lng":88.381948,"name":"Brahma Kumaris Ashram"},"33c0ab51e7f8462baa82ec6f5594eed1.16":{"guid":"33c0ab51e7f8462baa82ec6f5594eed1.16","lat":22.600912,"lng":88.370622,"name":"Statute "},"004ea1d7d0dd4f099abc1cf505135927.16":{"guid":"004ea1d7d0dd4f099abc1cf505135927.16","lat":22.596581,"lng":88.371926,"name":"Sikdar Bagan, Hatibagan "},"0a81410cdce84c45958d4ca3d84cd823.16":{"guid":"0a81410cdce84c45958d4ca3d84cd823.16","lat":22.603303,"lng":88.366987,"name":"Sri Gaudiya Math"},"15d2099cd3fa452a83655ad0d81974f6.16":{"guid":"15d2099cd3fa452a83655ad0d81974f6.16","lat":22.588962,"lng":88.366455,"name":"Kali Mandir "},"bc7ee93b9a664e3c8d523db3f89e9a34.16":{"guid":"bc7ee93b9a664e3c8d523db3f89e9a34.16","lat":22.592605,"lng":88.39141,"name":"শ্রী শ্রী শনি ও মা কালীর মন্দির"},"38ba8dfcf4d6417eb11f1b9f684a5384.16":{"guid":"38ba8dfcf4d6417eb11f1b9f684a5384.16","lat":22.587874,"lng":88.301479,"name":"Ancient Ram Mandir"},"8344317cabdc4102af068a467c9f66e1.16":{"guid":"8344317cabdc4102af068a467c9f66e1.16","lat":22.57722,"lng":88.313873,"name":"Wall art at Howrah Sri Ramakrishna Sangha"},"ce6573f147144cbfbc3ea443f083f6b8.16":{"guid":"ce6573f147144cbfbc3ea443f083f6b8.16","lat":22.579261,"lng":88.324881,"name":"Tulshi Chakraborty Smriti Udyan","isEx":true},"b4efe39ef98b4cb88c3fde5f43db35c6.16":{"guid":"b4efe39ef98b4cb88c3fde5f43db35c6.16","lat":22.566808,"lng":88.31771,"name":"Bust of Netaji"},"5640f0cdacfd483ab7ba64a8bd4e063b.16":{"guid":"5640f0cdacfd483ab7ba64a8bd4e063b.16","lat":22.557485,"lng":88.306936,"name":"Kavi Najrul Islam Bust Status"},"13f46fb9584d4fa1864a391180a31dee.16":{"guid":"13f46fb9584d4fa1864a391180a31dee.16","lat":22.56045,"lng":88.296474,"name":"MA Kali Temple"},"4cfb96f3f089430a93fd203b198b00eb.16":{"guid":"4cfb96f3f089430a93fd203b198b00eb.16","lat":22.58045,"lng":88.283661,"name":"Shree Shree Shyam Sundar Mandir"},"4b99f4987b9b45799c8433f8224a5752.16":{"guid":"4b99f4987b9b45799c8433f8224a5752.16","lat":22.526824,"lng":88.321733,"name":"Hossain Shah Park","isEx":true},"2b92e4b395f84f1f894f97dff6002012.16":{"guid":"2b92e4b395f84f1f894f97dff6002012.16","lat":22.525921,"lng":88.31681,"name":"Remount Road Railway Station"},"6902bbe163d94a73ac9ed5ecbd71be9b.16":{"guid":"6902bbe163d94a73ac9ed5ecbd71be9b.16","lat":22.473025,"lng":88.34963,"name":"Aurobindo park Kali temple"},"22d8b7c29b994c78a55131500ee18b29.16":{"guid":"22d8b7c29b994c78a55131500ee18b29.16","lat":22.61154,"lng":88.399693,"name":"Kalindi Main Playground","isEx":true},"6087342cb82d4e8bb89d422280dffd90.16":{"guid":"6087342cb82d4e8bb89d422280dffd90.16","lat":22.615132,"lng":88.402245,"name":"suval dutta's kali ma mandir"},"5c5a997f2ab84ed9ba802c8a0a527d4d.16":{"guid":"5c5a997f2ab84ed9ba802c8a0a527d4d.16","lat":22.6124,"lng":88.404215,"name":"kashi shiva mandir"},"e860f23a75c543d4bbb757ed668fbf3b.16":{"guid":"e860f23a75c543d4bbb757ed668fbf3b.16","lat":22.976129,"lng":88.456447,"name":"Kalyani Silpanchal Railway Station"},"dc4e6cca72f948c1af7b07342e97fbb9.16":{"guid":"dc4e6cca72f948c1af7b07342e97fbb9.16","lat":22.945998,"lng":88.419543,"name":"Ma Kali Mandir"},"44c67bd7814146ebbde4b3c867181ddb.16":{"guid":"44c67bd7814146ebbde4b3c867181ddb.16","lat":22.887071,"lng":88.40301,"name":"Shiv mandir near ganga river"},"3ead7b6d000445bbb2a3b3721f0ecf17.16":{"guid":"3ead7b6d000445bbb2a3b3721f0ecf17.16","lat":22.883489,"lng":88.415058,"name":"Bipad Baba Temple"},"2f757ad559f24c598861784d197f74fc.16":{"guid":"2f757ad559f24c598861784d197f74fc.16","lat":22.885499,"lng":88.419233,"name":"Naihati Anandabazar Post Office","isEx":true},"b68cd108b9eb4acea64d863421bfbe93.16":{"guid":"b68cd108b9eb4acea64d863421bfbe93.16","lat":22.884579,"lng":88.423519,"name":"Shani Temple"},"4a046cc7c6c0415397547019e959bf80.16":{"guid":"4a046cc7c6c0415397547019e959bf80.16","lat":22.877304,"lng":88.409338,"name":"Pancharashashan Temple"},"f5d85796011f43d3a4330e327c45b539.16":{"guid":"f5d85796011f43d3a4330e327c45b539.16","lat":22.875216,"lng":88.405986,"name":"Bhangabandha Ghat Park"},"7114fd94a24d4a6d9f815c513b668022.16":{"guid":"7114fd94a24d4a6d9f815c513b668022.16","lat":22.87399,"lng":88.40838,"name":"Paanch Mondir: The Five Temples"},"ed1430b4c08a4e7b881dffb492307b70.16":{"guid":"ed1430b4c08a4e7b881dffb492307b70.16","lat":22.871959,"lng":88.402692,"name":"Statue of Rabindranath Tagore"},"c1ad9a32d4c44a799fa561703844b498.16":{"guid":"c1ad9a32d4c44a799fa561703844b498.16","lat":22.871677,"lng":88.425452,"name":"Streetside Krishna Temple"},