{
    "type": "FeatureCollection",
    "features": [
        {
            "type": "Feature",
            "geometry": {
                "type": "Point",
                "coordinates": [
                    88.377681,
                    22.544757
                ]
            },
            "properties": {
                "pogo_type": "gym",
                "name": "Shibtala Math Entrance",
                "guid": "002c8fb503d442f1a0dde469756531ab.16"
            }
        },
        {
            "type": "Feature",
            "geometry": {
                "type": "Point",
                "coordinates": [
                    88.371926,
                    22.596581
                ]
            },
            "properties": {
                "pogo_type": "gym",
                "name": "Sikdar Bagan, Hatibagan ",
                "guid": "004ea1d7d0dd4f099abc1cf505135927.16"
            }
        },
        {
            "type": "Feature",
            "geometry": {
                "type": "Point",
                "coordinates": [
                    88.376322,
                    22.486779
                ]
            },
            "properties": {
                "pogo_type": "gym",
                "name": "Jyoti Sangha Library",
                "guid": "0120519b6cdc4c30a0a86ed20cba6324.16"
            }
        },
        {
            "type": "Feature",
            "geometry": {
                "type": "Point",
                "coordinates": [
                    88.319561,
                    22.580263
                ]
            },
            "properties": {
                "pogo_type": "gym",
                "name": "Bust of Swami Vivekananda",
                "guid": "0122299b8cf04338b40fa1896dd0256b.16"
            }
        },
        {
            "type": "Feature",
            "geometry": {
                "type": "Point",
                "coordinates": [
                    88.401583,
                    22.867407
                ]
            },
            "properties": {
                "pogo_type": "gym",
                "name": "Masjid Manbod Sardar",
                "guid": "016a164e00914686929088096284f477.16"
            }
        },
        {
            "type": "Feature",
            "geometry": {
                "type": "Point",
                "coordinates": [
                    88.314817,
                    22.556444
                ]
            },
            "properties": {
                "pogo_type": "gym",
                "name": "Shalimar Railway Platform",
                "guid": "018e1ea478dd4bd2aa4546d7d4755d7a.16"
            }
        },
        {
            "type": "Feature",
            "geometry": {
                "type": "Point",
                "coordinates": [
                    88.325826,
                    22.512978
                ]
            },
            "properties": {
                "pogo_type": "gym",
                "name": "Hanuman Temple New Alipore",
                "guid": "01b73266652a41a6a4ae39f49eadfce8.16"
            }
        },
        {
            "type": "Feature",
            "geometry": {
                "type": "Point",
                "coordinates": [
                    88.383217,
                    22.834523
                ]
            },
            "properties": {
                "pogo_type": "gym",
                "name": "Shankarnarayan Bose",
                "guid": "02be314bafb7491db28af13987bb9d53.16"
            }
        },
        {
            "type": "Feature",
            "geometry": {
                "type": "Point",
                "coordinates": [
                    88.311133,
                    22.573338
                ]
            },
            "properties": {
                "pogo_type": "gym",
                "name": "Slide at park",
                "guid": "02c0257f0a14448ca55d16df25007b38.16"
            }
        },
        {
            "type": "Feature",
            "geometry": {
                "type": "Point",
                "coordinates": [
                    88.349449,
                    22.487425
                ]
            },
            "properties": {
                "pogo_type": "gym",
                "pogo_ex": true,
                "name": "Nehru Playground",
                "guid": "02ed65a8774b4968891dd807bb8c0d9e.16"
            }
        },
        {
            "type": "Feature",
            "geometry": {
                "type": "Point",
                "coordinates": [
                    88.415903,
                    22.889571
                ]
            },
            "properties": {
                "pogo_type": "gym",
                "name": "Mahakali Temple",
                "guid": "032b49d73a6246d59f37cbef88d359f1.16"
            }
        },
        {
            "type": "Feature",
            "geometry": {
                "type": "Point",
                "coordinates": [
                    88.345202,
                    22.563969
                ]
            },
            "properties": {
                "pogo_type": "gym",
                "pogo_ex": true,
                "name": "Statue of Goushto Pal",
                "guid": "03759cae66e349389340eec4ca39e257.16"
            }
        },
        {
            "type": "Feature",
            "geometry": {
                "type": "Point",
                "coordinates": [
                    88.421004,
                    22.629531
                ]
            },
            "properties": {
                "pogo_type": "gym",
                "name": "Shani Temple",
                "guid": "03e21baf528547839ea24f6e447d3b94.16"
            }
        },
        {
            "type": "Feature",
            "geometry": {
                "type": "Point",
                "coordinates": [
                    88.454154,
                    22.947971
                ]
            },
            "properties": {
                "pogo_type": "gym",
                "name": "Sri Sri Narmodeswar shiv mandir",
                "guid": "040079fa238f425c9ae034f027412b62.16"
            }
        },
        {
            "type": "Feature",
            "geometry": {
                "type": "Point",
                "coordinates": [
                    88.41011,
                    22.568963
                ]
            },
            "properties": {
                "pogo_type": "gym",
                "pogo_ex": true,
                "name": "Salt Lake Stadium",
                "guid": "0413a9f9e6aa4e2584ebc96666d490e2.16"
            }
        },
        {
            "type": "Feature",
            "geometry": {
                "type": "Point",
                "coordinates": [
                    88.354196,
                    22.541416
                ]
            },
            "properties": {
                "pogo_type": "gym",
                "pogo_ex": true,
                "name": "Bust of Bhagat Singh",
                "guid": "044dd41ed7944dcf85ef0b5f98c0386c.16"
            }
        },
        {
            "type": "Feature",
            "geometry": {
                "type": "Point",
                "coordinates": [
                    88.289424,
                    22.59489
                ]
            },
            "properties": {
                "pogo_type": "gym",
                "name": "jai hanuman mandir",
                "guid": "04b74eaa809640e8909b3f0b1cb4d82f.16"
            }
        },
        {
            "type": "Feature",
            "geometry": {
                "type": "Point",
                "coordinates": [
                    88.378369,
                    22.809698
                ]
            },
            "properties": {
                "pogo_type": "gym",
                "name": "Groho Raj Soni Mondir",
                "guid": "05bcb57505014f41ab61797531f39bb9.16"
            }
        },
        {
            "type": "Feature",
            "geometry": {
                "type": "Point",
                "coordinates": [
                    88.463074,
                    22.971152
                ]
            },
            "properties": {
                "pogo_type": "gym",
                "pogo_ex": true,
                "name": "Bidhan Roy Statue in Kalyani",
                "guid": "060d37a185614e3fb528895772529758.16"
            }
        },
        {
            "type": "Feature",
            "geometry": {
                "type": "Point",
                "coordinates": [
                    88.466355,
                    22.693182
                ]
            },
            "properties": {
                "pogo_type": "gym",
                "name": "Small Shiva Temple",
                "guid": "0639e972333146df898e412b7d5e7076.16"
            }
        },
        {
            "type": "Feature",
            "geometry": {
                "type": "Point",
                "coordinates": [
                    88.292371,
                    22.556749
                ]
            },
            "properties": {
                "pogo_type": "gym",
                "name": "Dr. Vishwanath Mudgal Commemorative Plaque",
                "guid": "067704c36782489c8973c80def8af185.16"
            }
        },
        {
            "type": "Feature",
            "geometry": {
                "type": "Point",
                "coordinates": [
                    88.290052,
                    22.581439
                ]
            },
            "properties": {
                "pogo_type": "gym",
                "name": "Tarun Sangha Library",
                "guid": "06ac56d3006c4b47a59d15992637d586.16"
            }
        },
        {
            "type": "Feature",
            "geometry": {
                "type": "Point",
                "coordinates": [
                    88.355772,
                    22.478721
                ]
            },
            "properties": {
                "pogo_type": "gym",
                "name": "Shani Temple , Gachtala",
                "guid": "06f1f618a0e549e78f9d059d0818c8e2.16"
            }
        },
        {
            "type": "Feature",
            "geometry": {
                "type": "Point",
                "coordinates": [
                    88.366271,
                    22.696307
                ]
            },
            "properties": {
                "pogo_type": "gym",
                "name": "Jotileshwar Mandir",
                "guid": "074b7488aef34d718d6b1f29998c53bd.16"
            }
        },
        {
            "type": "Feature",
            "geometry": {
                "type": "Point",
                "coordinates": [
                    88.352841,
                    22.518967
                ]
            },
            "properties": {
                "pogo_type": "gym",
                "pogo_ex": true,
                "name": "Lions Children's Park",
                "guid": "07ccbe6553dc42a1a8e0df350230a964.16"
            }
        },
        {
            "type": "Feature",
            "geometry": {
                "type": "Point",
                "coordinates": [
                    88.400212,
                    22.502985
                ]
            },
            "properties": {
                "pogo_type": "gym",
                "name": "Shiv Kali Temple",
                "guid": "07ced5a4069a4c519d535904844e643d.16"
            }
        },
        {
            "type": "Feature",
            "geometry": {
                "type": "Point",
                "coordinates": [
                    88.391586,
                    22.662744
                ]
            },
            "properties": {
                "pogo_type": "gym",
                "name": "Belgharia Athletic Club",
                "guid": "07e01056dddf4a94a7a9c710020b4b7a.16"
            }
        },
        {
            "type": "Feature",
            "geometry": {
                "type": "Point",
                "coordinates": [
                    88.376986,
                    22.503753
                ]
            },
            "properties": {
                "pogo_type": "gym",
                "name": "Maa Manasha Temple",
                "guid": "080d4d6ae57d4a50a23b876593b16121.16"
            }
        },
        {
            "type": "Feature",
            "geometry": {
                "type": "Point",
                "coordinates": [
                    88.375266,
                    22.725886
                ]
            },
            "properties": {
                "pogo_type": "gym",
                "name": "Surya Sen Playground",
                "guid": "0896b1ddd68543158d16cffcaac09bdc.16"
            }
        },
        {
            "type": "Feature",
            "geometry": {
                "type": "Point",
                "coordinates": [
                    88.375941,
                    22.844389
                ]
            },
            "properties": {
                "pogo_type": "gym",
                "name": "vidyasagar park",
                "guid": "089d01b8d28849e59bf7db2e6d20c78c.16"
            }
        },
        {
            "type": "Feature",
            "geometry": {
                "type": "Point",
                "coordinates": [
                    88.414132,
                    22.63247
                ]
            },
            "properties": {
                "pogo_type": "gym",
                "name": "Shani Baba O Ma Kali Mandir",
                "guid": "08f3d005a0e04161bdd0ac6d60852d4f.16"
            }
        },
        {
            "type": "Feature",
            "geometry": {
                "type": "Point",
                "coordinates": [
                    88.424471,
                    22.889033
                ]
            },
            "properties": {
                "pogo_type": "gym",
                "name": "6 no bijoynagor water tank",
                "guid": "09088e5f51cc47f7b430a09936ed842d.16"
            }
        },
        {
            "type": "Feature",
            "geometry": {
                "type": "Point",
                "coordinates": [
                    88.362679,
                    22.575284
                ]
            },
            "properties": {
                "pogo_type": "gym",
                "name": "Soumendranath Bandhopadhay Statue",
                "guid": "0955bf9130fa40cd84515d7815e2cab9.16"
            }
        },
        {
            "type": "Feature",
            "geometry": {
                "type": "Point",
                "coordinates": [
                    88.381948,
                    22.829492
                ]
            },
            "properties": {
                "pogo_type": "gym",
                "name": "Brahma Kumaris Ashram",
                "guid": "099722f660c140f282ee2e9fdc9d2526.16"
            }
        },
        {
            "type": "Feature",
            "geometry": {
                "type": "Point",
                "coordinates": [
                    88.276594,
                    22.566348
                ]
            },
            "properties": {
                "pogo_type": "gym",
                "name": "Water Tank",
                "guid": "099b6887a37e4428aefaa1ab19b4c3b8.16"
            }
        },
        {
            "type": "Feature",
            "geometry": {
                "type": "Point",
                "coordinates": [
                    88.40448,
                    22.597602
                ]
            },
            "properties": {
                "pogo_type": "gym",
                "pogo_ex": true,
                "name": "DURGA MA IDOL",
                "guid": "09a8f0f14b5b48128699c8618856f381.16"
            }
        },
        {
            "type": "Feature",
            "geometry": {
                "type": "Point",
                "coordinates": [
                    88.462528,
                    22.696748
                ]
            },
            "properties": {
                "pogo_type": "gym",
                "name": "Bust of Sukanta Bhattacharyya",
                "guid": "09bf300c50f4443389971a72e28abac9.16"
            }
        },
        {
            "type": "Feature",
            "geometry": {
                "type": "Point",
                "coordinates": [
                    88.422537,
                    22.920726
                ]
            },
            "properties": {
                "pogo_type": "gym",
                "name": "Batala Shani Mandir",
                "guid": "0a419079021b4dae9e65a9422f03d716.16"
            }
        },
        {
            "type": "Feature",
            "geometry": {
                "type": "Point",
                "coordinates": [
                    88.419366,
                    22.551353
                ]
            },
            "properties": {
                "pogo_type": "gym",
                "name": "Trinathpally Children's Park",
                "guid": "0a4c38ab79cf430f9020b29af3441451.16"
            }
        },
        {
            "type": "Feature",
            "geometry": {
                "type": "Point",
                "coordinates": [
                    88.366987,
                    22.603303
                ]
            },
            "properties": {
                "pogo_type": "gym",
                "name": "Sri Gaudiya Math",
                "guid": "0a81410cdce84c45958d4ca3d84cd823.16"
            }
        },
        {
            "type": "Feature",
            "geometry": {
                "type": "Point",
                "coordinates": [
                    88.391576,
                    22.514665
                ]
            },
            "properties": {
                "pogo_type": "gym",
                "name": "Rajdanga Shani temple",
                "guid": "0ac3f34f4eb346d3b229809a4de30de4.16"
            }
        },
        {
            "type": "Feature",
            "geometry": {
                "type": "Point",
                "coordinates": [
                    88.404144,
                    22.610231
                ]
            },
            "properties": {
                "pogo_type": "gym",
                "name": "Bajarang Bali Shiv Mandir",
                "guid": "0ace926e00ee43cd9eba8eaf001bba6e.16"
            }
        },
        {
            "type": "Feature",
            "geometry": {
                "type": "Point",
                "coordinates": [
                    88.395072,
                    22.918891
                ]
            },
            "properties": {
                "pogo_type": "gym",
                "name": "Gate Of Bandel Church",
                "guid": "0af6164a47944dbc861b390ac94551d0.16"
            }
        },
        {
            "type": "Feature",
            "geometry": {
                "type": "Point",
                "coordinates": [
                    88.448307,
                    22.959419
                ]
            },
            "properties": {
                "pogo_type": "gym",
                "name": "JIS COLLEGE OF ENGINEERING",
                "guid": "0b2768bda1824a5695b75fd2be113207.16"
            }
        },
        {
            "type": "Feature",
            "geometry": {
                "type": "Point",
                "coordinates": [
                    88.313083,
                    22.564692
                ]
            },
            "properties": {
                "pogo_type": "gym",
                "name": "Shree Shree Sarbamangala Kaali Mata Mandir",
                "guid": "0b8f083048174601a708be7d44b7f4cc.16"
            }
        },
        {
            "type": "Feature",
            "geometry": {
                "type": "Point",
                "coordinates": [
                    88.298951,
                    22.518745
                ]
            },
            "properties": {
                "pogo_type": "gym",
                "name": "Small Shiv Temple",
                "guid": "0bf89de707e44bc09caa29f8f5a71e84.16"
            }
        },
        {
            "type": "Feature",
            "geometry": {
                "type": "Point",
                "coordinates": [
                    88.221317,
                    22.500906
                ]
            },
            "properties": {
                "pogo_type": "gym",
                "name": "Children's Park",
                "guid": "0c12b2b6a4734345926ecbba80a93a44.16"
            }
        },
        {
            "type": "Feature",
            "geometry": {
                "type": "Point",
                "coordinates": [
                    88.386226,
                    22.483061
                ]
            },
            "properties": {
                "pogo_type": "gym",
                "name": "Shib &  Gouri temple",
                "guid": "0d33a68c64d6422ababcf6e29567586b.16"
            }
        },
        {
            "type": "Feature",
            "geometry": {
                "type": "Point",
                "coordinates": [
                    88.417593,
                    22.446009
                ]
            },
            "properties": {
                "pogo_type": "gym",
                "name": "Tagore Statue",
                "guid": "0d4af975210e4c6a901cd2a542051277.16"
            }
        },
        {
            "type": "Feature",
            "geometry": {
                "type": "Point",
                "coordinates": [
                    88.369466,
                    22.560207
                ]
            },
            "properties": {
                "pogo_type": "gym",
                "pogo_ex": true,
                "name": "Ramlila Park",
                "guid": "0d583810a2af4bfaa149cef3ba71e791.16"
            }
        },
        {
            "type": "Feature",
            "geometry": {
                "type": "Point",
                "coordinates": [
                    88.438807,
                    22.642836
                ]
            },
            "properties": {
                "pogo_type": "gym",
                "name": "Netaji Subash Chandra Bose International Airport",
                "guid": "0dd135911032458f826f36e61f8a0fb6.16"
            }
        },
        {
            "type": "Feature",
            "geometry": {
                "type": "Point",
                "coordinates": [
                    88.347659,
                    22.481813
                ]
            },
            "properties": {
                "pogo_type": "gym",
                "pogo_ex": true,
                "name": "Wireless K.M.C Park",
                "guid": "0e28c00380dd4a55a7e3466423258562.16"
            }
        },
        {
            "type": "Feature",
            "geometry": {
                "type": "Point",
                "coordinates": [
                    88.5418,
                    22.765126
                ]
            },
            "properties": {
                "pogo_type": "gym",
                "name": "Sani Mandir",
                "guid": "0f0e5bbd53ee4125906b76e7815de32b.16"
            }
        },
        {
            "type": "Feature",
            "geometry": {
                "type": "Point",
                "coordinates": [
                    88.421287,
                    22.638214
                ]
            },
            "properties": {
                "pogo_type": "gym",
                "name": "Gorilla Statue",
                "guid": "0f330d33cf9e40f480b7cc31380104ac.16"
            }
        },
        {
            "type": "Feature",
            "geometry": {
                "type": "Point",
                "coordinates": [
                    88.317298,
                    22.578312
                ]
            },
            "properties": {
                "pogo_type": "gym",
                "name": "Ramkrishna and Sharoda Temple",
                "guid": "0f628bdcd793458593aa9c686d0c1f9c.16"
            }
        },
        {
            "type": "Feature",
            "geometry": {
                "type": "Point",
                "coordinates": [
                    88.308145,
                    22.594801
                ]
            },
            "properties": {
                "pogo_type": "gym",
                "name": "Tara Ma Temple",
                "guid": "0fc462048f1448a68769339b34f356fb.16"
            }
        },
        {
            "type": "Feature",
            "geometry": {
                "type": "Point",
                "coordinates": [
                    88.456961,
                    22.688967
                ]
            },
            "properties": {
                "pogo_type": "gym",
                "name": "Trishakti Temple",
                "guid": "0ff4fdbb947f4b88beafe356fbdb753b.16"
            }
        },
        {
            "type": "Feature",
            "geometry": {
                "type": "Point",
                "coordinates": [
                    88.44329,
                    22.972536
                ]
            },
            "properties": {
                "pogo_type": "gym",
                "name": "Lake Park",
                "guid": "1009bb9504ec4212a2b0ef8b5b8f876f.16"
            }
        },
        {
            "type": "Feature",
            "geometry": {
                "type": "Point",
                "coordinates": [
                    88.450523,
                    22.944988
                ]
            },
            "properties": {
                "pogo_type": "gym",
                "name": "Kanchrapara Railway Station",
                "guid": "10815788e2994f1a9d4d0aa8ba5f55d0.16"
            }
        },
        {
            "type": "Feature",
            "geometry": {
                "type": "Point",
                "coordinates": [
                    88.377082,
                    22.66048
                ]
            },
            "properties": {
                "pogo_type": "gym",
                "name": "Temple On BT Road",
                "guid": "1084c364a0bb4c6e8fa9d1d708e78013.16"
            }
        },
        {
            "type": "Feature",
            "geometry": {
                "type": "Point",
                "coordinates": [
                    88.337313,
                    22.50731
                ]
            },
            "properties": {
                "pogo_type": "gym",
                "name": "Children's Park",
                "guid": "10cfc578036443ad8131fe76497f90f8.16"
            }
        },
        {
            "type": "Feature",
            "geometry": {
                "type": "Point",
                "coordinates": [
                    88.392275,
                    22.621022
                ]
            },
            "properties": {
                "pogo_type": "gym",
                "name": "Swami Vivekanand Chowk",
                "guid": "10d92a40464d45f0b81d63902338dc8c.16"
            }
        },
        {
            "type": "Feature",
            "geometry": {
                "type": "Point",
                "coordinates": [
                    88.43324,
                    22.57225
                ]
            },
            "properties": {
                "pogo_type": "gym",
                "name": "Fountain",
                "guid": "114f1237ee5a420d979b7118cf4ad72e.16"
            }
        },
        {
            "type": "Feature",
            "geometry": {
                "type": "Point",
                "coordinates": [
                    88.453043,
                    22.58209
                ]
            },
            "properties": {
                "pogo_type": "gym",
                "pogo_ex": true,
                "name": "Road Art",
                "guid": "117fdfa92aef43f090647cc7aba2710c.16"
            }
        },
        {
            "type": "Feature",
            "geometry": {
                "type": "Point",
                "coordinates": [
                    88.471532,
                    22.579067
                ]
            },
            "properties": {
                "pogo_type": "gym",
                "name": "Swastika Landmark Narkel Square",
                "guid": "126feacb6faf4226aa817acf1564160f.16"
            }
        },
        {
            "type": "Feature",
            "geometry": {
                "type": "Point",
                "coordinates": [
                    88.357872,
                    22.548751
                ]
            },
            "properties": {
                "pogo_type": "gym",
                "name": "Seventh Day Adventist Church",
                "guid": "135a1a668b124434b31a5b243d69a0a2.16"
            }
        },
        {
            "type": "Feature",
            "geometry": {
                "type": "Point",
                "coordinates": [
                    88.434352,
                    22.414044
                ]
            },
            "properties": {
                "pogo_type": "gym",
                "name": "Subhasgram Train Station ",
                "guid": "136b0fa2a2af48fdb37c6332db4b3f9b.16"
            }
        },
        {
            "type": "Feature",
            "geometry": {
                "type": "Point",
                "coordinates": [
                    88.420941,
                    22.638422
                ]
            },
            "properties": {
                "pogo_type": "gym",
                "name": "Paschim Kamlapur children park",
                "guid": "13c36fb0c8864c9eb0aedc564aa85849.16"
            }
        },
        {
            "type": "Feature",
            "geometry": {
                "type": "Point",
                "coordinates": [
                    88.296474,
                    22.56045
                ]
            },
            "properties": {
                "pogo_type": "gym",
                "name": "MA Kali Temple",
                "guid": "13f46fb9584d4fa1864a391180a31dee.16"
            }
        },
        {
            "type": "Feature",
            "geometry": {
                "type": "Point",
                "coordinates": [
                    88.37595,
                    22.804724
                ]
            },
            "properties": {
                "pogo_type": "gym",
                "name": "Thako Babar Mondir",
                "guid": "143fa0105b6e42138151559b4b1931c9.16"
            }
        },
        {
            "type": "Feature",
            "geometry": {
                "type": "Point",
                "coordinates": [
                    88.363427,
                    22.552496
                ]
            },
            "properties": {
                "pogo_type": "gym",
                "name": "Blessed Mother Teresa",
                "guid": "148f74787824433693727cdb37bba0af.16"
            }
        },
        {
            "type": "Feature",
            "geometry": {
                "type": "Point",
                "coordinates": [
                    88.415703,
                    22.556388
                ]
            },
            "properties": {
                "pogo_type": "gym",
                "name": "Buro Baba Mandir",
                "guid": "14afd0349b324bff9dab15855cead2db.16"
            }
        },
        {
            "type": "Feature",
            "geometry": {
                "type": "Point",
                "coordinates": [
                    88.343228,
                    22.481213
                ]
            },
            "properties": {
                "pogo_type": "gym",
                "name": "Sitala Mata Mandir",
                "guid": "1552a034544b430f83178c31bcbb5954.16"
            }
        },
        {
            "type": "Feature",
            "geometry": {
                "type": "Point",
                "coordinates": [
                    88.421448,
                    22.582637
                ]
            },
            "properties": {
                "pogo_type": "gym",
                "name": "Karunamayee Park Gate",
                "guid": "15b1bed31e984c6fa83fb09cc2029aa3.16"
            }
        },
        {
            "type": "Feature",
            "geometry": {
                "type": "Point",
                "coordinates": [
                    88.366455,
                    22.588962
                ]
            },
            "properties": {
                "pogo_type": "gym",
                "name": "Kali Mandir ",
                "guid": "15d2099cd3fa452a83655ad0d81974f6.16"
            }
        },
        {
            "type": "Feature",
            "geometry": {
                "type": "Point",
                "coordinates": [
                    88.364554,
                    22.513935
                ]
            },
            "properties": {
                "pogo_type": "gym",
                "pogo_ex": true,
                "name": "Rabindranath As Valmiki",
                "guid": "15ec58498298498b9548c04ddda1d106.16"
            }
        },
        {
            "type": "Feature",
            "geometry": {
                "type": "Point",
                "coordinates": [
                    88.366213,
                    22.582402
                ]
            },
            "properties": {
                "pogo_type": "gym",
                "name": "Sadharan Brahmo Samaj",
                "guid": "16005942a8474932b506b52a8094c86c.16"
            }
        },
        {
            "type": "Feature",
            "geometry": {
                "type": "Point",
                "coordinates": [
                    88.419807,
                    22.682342
                ]
            },
            "properties": {
                "pogo_type": "gym",
                "name": "Village wall paint",
                "guid": "161464b30a9d4dfb97680102d87b2995.16"
            }
        },
        {
            "type": "Feature",
            "geometry": {
                "type": "Point",
                "coordinates": [
                    88.417509,
                    22.634834
                ]
            },
            "properties": {
                "pogo_type": "gym",
                "name": "Dum Dum Town Hall ",
                "guid": "169f77896d994ba0a932e237fac428b0.16"
            }
        },
        {
            "type": "Feature",
            "geometry": {
                "type": "Point",
                "coordinates": [
                    88.412715,
                    22.893678
                ]
            },
            "properties": {
                "pogo_type": "gym",
                "name": "Old Shiva Temple",
                "guid": "16c74716473743898164572fe61f8b54.16"
            }
        },
        {
            "type": "Feature",
            "geometry": {
                "type": "Point",
                "coordinates": [
                    88.352397,
                    22.57687
                ]
            },
            "properties": {
                "pogo_type": "gym",
                "name": "Saifee Masjid",
                "guid": "16d2c75a5303429ba7917fb548f1d3c6.16"
            }
        },
        {
            "type": "Feature",
            "geometry": {
                "type": "Point",
                "coordinates": [
                    88.516432,
                    22.749232
                ]
            },
            "properties": {
                "pogo_type": "gym",
                "name": "Sri Sri Radhagobindo Mandir ",
                "guid": "16e905dce598433999a7e43258a18da8.16"
            }
        },
        {
            "type": "Feature",
            "geometry": {
                "type": "Point",
                "coordinates": [
                    88.420959,
                    22.569195
                ]
            },
            "properties": {
                "pogo_type": "gym",
                "pogo_ex": true,
                "name": "MIG-21 Replica Statue",
                "guid": "1773ab9d9aa24ebba63509014ed5d7f0.16"
            }
        },
        {
            "type": "Feature",
            "geometry": {
                "type": "Point",
                "coordinates": [
                    88.427334,
                    22.597936
                ]
            },
            "properties": {
                "pogo_type": "gym",
                "name": "Children's Park",
                "guid": "17e319d959c74f9196b3f76a632fbb89.16"
            }
        },
        {
            "type": "Feature",
            "geometry": {
                "type": "Point",
                "coordinates": [
                    88.346741,
                    22.539545
                ]
            },
            "properties": {
                "pogo_type": "gym",
                "name": "Villager Marble Mural",
                "guid": "180e1c2da82d45c399c7b01c800e405c.16"
            }
        },
        {
            "type": "Feature",
            "geometry": {
                "type": "Point",
                "coordinates": [
                    88.349334,
                    22.481728
                ]
            },
            "properties": {
                "pogo_type": "gym",
                "name": "Bottala Shiv Mandir",
                "guid": "1825303c4f404c069a3c4eaf5c129a87.16"
            }
        },
        {
            "type": "Feature",
            "geometry": {
                "type": "Point",
                "coordinates": [
                    88.385311,
                    22.470792
                ]
            },
            "properties": {
                "pogo_type": "gym",
                "name": "Statue of Swami Vivekananda",
                "guid": "1826d7da3c1945dda22b5b9c194dc833.16"
            }
        },
        {
            "type": "Feature",
            "geometry": {
                "type": "Point",
                "coordinates": [
                    88.385498,
                    22.671725
                ]
            },
            "properties": {
                "pogo_type": "gym",
                "name": "Basudebpur Shiv Tola Puja Mandop",
                "guid": "183d1be62b4e43b480172cc55f7cb8e1.16"
            }
        },
        {
            "type": "Feature",
            "geometry": {
                "type": "Point",
                "coordinates": [
                    88.342142,
                    22.702261
                ]
            },
            "properties": {
                "pogo_type": "gym",
                "name": "Statue Of Vivekananda, Konnagar, Hooghly ",
                "guid": "18ac1b60a4b3492588738fa0dfbedc97.16"
            }
        },
        {
            "type": "Feature",
            "geometry": {
                "type": "Point",
                "coordinates": [
                    88.364573,
                    22.472863
                ]
            },
            "properties": {
                "pogo_type": "gym",
                "name": "Santoshbala Library",
                "guid": "18c193bd84ba42a7863e61b68d1017f5.16"
            }
        },
        {
            "type": "Feature",
            "geometry": {
                "type": "Point",
                "coordinates": [
                    88.407352,
                    22.634973
                ]
            },
            "properties": {
                "pogo_type": "gym",
                "name": "Subash Nagar Kali Temple",
                "guid": "18d63109db914b869c00b4a680dc527f.16"
            }
        },
        {
            "type": "Feature",
            "geometry": {
                "type": "Point",
                "coordinates": [
                    88.412334,
                    22.423243
                ]
            },
            "properties": {
                "pogo_type": "gym",
                "name": "Bust Of Rabindranath",
                "guid": "18e3e2aba6214b469355ffa77af5c82a.16"
            }
        },
        {
            "type": "Feature",
            "geometry": {
                "type": "Point",
                "coordinates": [
                    88.45875,
                    22.710032
                ]
            },
            "properties": {
                "pogo_type": "gym",
                "name": "The Water Tank",
                "guid": "197262e535fd4c8184f1a3cea9a237ff.16"
            }
        },
        {
            "type": "Feature",
            "geometry": {
                "type": "Point",
                "coordinates": [
                    88.407958,
                    22.571657
                ]
            },
            "properties": {
                "pogo_type": "gym",
                "name": "Salt Lake Stadium Gate 1",
                "guid": "1997c0c1cb464706a77f1ddb9a496363.16"
            }
        },
        {
            "type": "Feature",
            "geometry": {
                "type": "Point",
                "coordinates": [
                    88.358839,
                    22.556072
                ]
            },
            "properties": {
                "pogo_type": "gym",
                "name": "Pentecostal Church",
                "guid": "19cbef6393d44b6cadf8784a5bef2477.16"
            }
        },
        {
            "type": "Feature",
            "geometry": {
                "type": "Point",
                "coordinates": [
                    88.390512,
                    22.831977
                ]
            },
            "properties": {
                "pogo_type": "gym",
                "name": "Swami Vivekananda Mural",
                "guid": "19f23e9b559e434792ae124c5ee85fec.16"
            }
        },
        {
            "type": "Feature",
            "geometry": {
                "type": "Point",
                "coordinates": [
                    88.464682,
                    22.693394
                ]
            },
            "properties": {
                "pogo_type": "gym",
                "name": "Ramakrishna Vivekananda Sebashram",
                "guid": "19fc8218c55d44989cbedf411798b471.16"
            }
        },
        {
            "type": "Feature",
            "geometry": {
                "type": "Point",
                "coordinates": [
                    88.377151,
                    22.804592
                ]
            },
            "properties": {
                "pogo_type": "gym",
                "name": "Bust of Swami Vivekananda",
                "guid": "1ad03e92669c4500b1a5b6d69a55cea8.16"
            }
        },
        {
            "type": "Feature",
            "geometry": {
                "type": "Point",
                "coordinates": [
                    88.402385,
                    22.664134
                ]
            },
            "properties": {
                "pogo_type": "gym",
                "name": "Shiv and Shani Mandir",
                "guid": "1b6912dcc824458bac04f637ff45dff7.16"
            }
        },
        {
            "type": "Feature",
            "geometry": {
                "type": "Point",
                "coordinates": [
                    88.392305,
                    22.567703
                ]
            },
            "properties": {
                "pogo_type": "gym",
                "name": "Children's Park Phoolbagan",
                "guid": "1b8ff4ff192046e3879e1db157df99b2.16"
            }
        },
        {
            "type": "Feature",
            "geometry": {
                "type": "Point",
                "coordinates": [
                    88.366412,
                    22.474992
                ]
            },
            "properties": {
                "pogo_type": "gym",
                "name": "Shani Temple",
                "guid": "1b970d9999a34c38bc8ec5a0abea3557.16"
            }
        },
        {
            "type": "Feature",
            "geometry": {
                "type": "Point",
                "coordinates": [
                    88.369092,
                    22.466925
                ]
            },
            "properties": {
                "pogo_type": "gym",
                "name": "Bidhanpally Sitala Temple ",
                "guid": "1b9782e8a0254c4fbeb9cb74b1983734.16"
            }
        },
        {
            "type": "Feature",
            "geometry": {
                "type": "Point",
                "coordinates": [
                    88.345038,
                    22.703149
                ]
            },
            "properties": {
                "pogo_type": "gym",
                "name": "Hanuman Temple",
                "guid": "1b9c722e361945b284462aaa86687736.16"
            }
        },
        {
            "type": "Feature",
            "geometry": {
                "type": "Point",
                "coordinates": [
                    88.358057,
                    22.70571
                ]
            },
            "properties": {
                "pogo_type": "gym",
                "name": "Kali Mata Temple",
                "guid": "1ba77e5a2db9455aa99e4b1b341cd735.16"
            }
        },
        {
            "type": "Feature",
            "geometry": {
                "type": "Point",
                "coordinates": [
                    88.345976,
                    22.673846
                ]
            },
            "properties": {
                "pogo_type": "gym",
                "name": "A Beautiful Lokenath Baba Temple",
                "guid": "1bdcac346f47442ab1e479c5e6230046.16"
            }
        },
        {
            "type": "Feature",
            "geometry": {
                "type": "Point",
                "coordinates": [
                    88.348446,
                    22.549201
                ]
            },
            "properties": {
                "pogo_type": "gym",
                "pogo_ex": true,
                "name": "Mortar Near Maidan Metro",
                "guid": "1bf6f2dcb6a3490888ee405255dc4eb2.16"
            }
        },
        {
            "type": "Feature",
            "geometry": {
                "type": "Point",
                "coordinates": [
                    88.403327,
                    22.591976
                ]
            },
            "properties": {
                "pogo_type": "gym",
                "pogo_ex": true,
                "name": "Kolkakoli Park Entrance ",
                "guid": "1c2b1ad364114714895cd9a28e04d603.16"
            }
        },
        {
            "type": "Feature",
            "geometry": {
                "type": "Point",
                "coordinates": [
                    88.39309,
                    22.591309
                ]
            },
            "properties": {
                "pogo_type": "gym",
                "name": "The Chinese Lady Statue",
                "guid": "1c5f79d0cf4c4ba4bf2b952a1e2b7abd.16"
            }
        },
        {
            "type": "Feature",
            "geometry": {
                "type": "Point",
                "coordinates": [
                    88.419545,
                    22.589208
                ]
            },
            "properties": {
                "pogo_type": "gym",
                "name": "Bidhan Chandra Roy",
                "guid": "1c81a4acd5774687a89ff401147ee19d.12"
            }
        },
        {
            "type": "Feature",
            "geometry": {
                "type": "Point",
                "coordinates": [
                    88.362167,
                    22.547713
                ]
            },
            "properties": {
                "pogo_type": "gym",
                "name": "L.C.Rd Cemetary ",
                "guid": "1cd4fe31d7af44aeba46cf4ad8d47de8.16"
            }
        },
        {
            "type": "Feature",
            "geometry": {
                "type": "Point",
                "coordinates": [
                    88.364416,
                    22.600079
                ]
            },
            "properties": {
                "pogo_type": "gym",
                "name": "Kali mandir ",
                "guid": "1cda2951e27c4c248efcd11373b7396a.16"
            }
        },
        {
            "type": "Feature",
            "geometry": {
                "type": "Point",
                "coordinates": [
                    88.41192,
                    22.657745
                ]
            },
            "properties": {
                "pogo_type": "gym",
                "name": "Bust Of Dr. B.R. Ambedkar",
                "guid": "1d02ac3d1f954d56ad43c9b25a28eab6.16"
            }
        },
        {
            "type": "Feature",
            "geometry": {
                "type": "Point",
                "coordinates": [
                    88.347467,
                    22.546857
                ]
            },
            "properties": {
                "pogo_type": "gym",
                "pogo_ex": true,
                "name": "ITC Park Graffiti",
                "guid": "1d31e4e3c0134d019e2eaa2754eb09d8.16"
            }
        },
        {
            "type": "Feature",
            "geometry": {
                "type": "Point",
                "coordinates": [
                    88.388768,
                    22.473367
                ]
            },
            "properties": {
                "pogo_type": "gym",
                "name": "Fountain Lights",
                "guid": "1d4e2ee947014f78bc753177f83bb712.16"
            }
        },
        {
            "type": "Feature",
            "geometry": {
                "type": "Point",
                "coordinates": [
                    88.393504,
                    22.831442
                ]
            },
            "properties": {
                "pogo_type": "gym",
                "name": "Netaji Subhas Chandra Bose Mural",
                "guid": "1df4b4b4ac5f4c358555f62545ef2f47.16"
            }
        },
        {
            "type": "Feature",
            "geometry": {
                "type": "Point",
                "coordinates": [
                    88.411495,
                    22.661685
                ]
            },
            "properties": {
                "pogo_type": "gym",
                "name": "Fakir Para Mosque",
                "guid": "1e00c08903af405fb0ada4efabcc3d85.16"
            }
        },
        {
            "type": "Feature",
            "geometry": {
                "type": "Point",
                "coordinates": [
                    88.453806,
                    22.680125
                ]
            },
            "properties": {
                "pogo_type": "gym",
                "name": "Small Roadside Temple ",
                "guid": "1e09cb9ccf7b46fe8566cf890ca6b8ce.16"
            }
        },
        {
            "type": "Feature",
            "geometry": {
                "type": "Point",
                "coordinates": [
                    88.407204,
                    22.460435
                ]
            },
            "properties": {
                "pogo_type": "gym",
                "name": "Wall Paintings",
                "guid": "1e5628dd60614a86b478f11f1230796b.16"
            }
        },
        {
            "type": "Feature",
            "geometry": {
                "type": "Point",
                "coordinates": [
                    88.252104,
                    22.698185
                ]
            },
            "properties": {
                "pogo_type": "gym",
                "name": "Shiva Temple ",
                "guid": "1e5b1c049e76498b82107f5e10dc7949.16"
            }
        },
        {
            "type": "Feature",
            "geometry": {
                "type": "Point",
                "coordinates": [
                    88.35333,
                    22.514448
                ]
            },
            "properties": {
                "pogo_type": "gym",
                "name": "Octopus murals",
                "guid": "1eac928c87d04a7a96601e22a4a52028.16"
            }
        },
        {
            "type": "Feature",
            "geometry": {
                "type": "Point",
                "coordinates": [
                    88.303918,
                    22.503591
                ]
            },
            "properties": {
                "pogo_type": "gym",
                "name": "Shiv Temple",
                "guid": "1ed106a1bd714d17ad4a2af6c7ec4657.16"
            }
        },
        {
            "type": "Feature",
            "geometry": {
                "type": "Point",
                "coordinates": [
                    88.25083,
                    22.529649
                ]
            },
            "properties": {
                "pogo_type": "gym",
                "name": "Notun Pole Tara Maa Mandir Entrance",
                "guid": "1f1141caa5034ab296cb83cddaa5053f.16"
            }
        },
        {
            "type": "Feature",
            "geometry": {
                "type": "Point",
                "coordinates": [
                    88.340413,
                    22.50528
                ]
            },
            "properties": {
                "pogo_type": "gym",
                "name": "Shiv Temple",
                "guid": "1fb8fd70456d4726bffbae86ee2b5deb.16"
            }
        },
        {
            "type": "Feature",
            "geometry": {
                "type": "Point",
                "coordinates": [
                    88.376623,
                    22.475035
                ]
            },
            "properties": {
                "pogo_type": "gym",
                "name": "Saturn's Temple",
                "guid": "2000ebf92c7b41948852f58e2d82c60b.16"
            }
        },
        {
            "type": "Feature",
            "geometry": {
                "type": "Point",
                "coordinates": [
                    88.392684,
                    22.621473
                ]
            },
            "properties": {
                "pogo_type": "gym",
                "name": "Dumdum Station Platform 4",
                "guid": "201651418a194520b517c21131eb4736.16"
            }
        },
        {
            "type": "Feature",
            "geometry": {
                "type": "Point",
                "coordinates": [
                    88.300726,
                    22.557284
                ]
            },
            "properties": {
                "pogo_type": "gym",
                "name": "Kali Mandir Near Botanical Garden",
                "guid": "208d046e4979485a94890bca73eed281.16"
            }
        },
        {
            "type": "Feature",
            "geometry": {
                "type": "Point",
                "coordinates": [
                    88.469605,
                    22.710542
                ]
            },
            "properties": {
                "pogo_type": "gym",
                "name": "Hridaypur Railway Station ",
                "guid": "20925363a17a44b98b49d0dce07abd74.16"
            }
        },
        {
            "type": "Feature",
            "geometry": {
                "type": "Point",
                "coordinates": [
                    88.285865,
                    22.577123
                ]
            },
            "properties": {
                "pogo_type": "gym",
                "name": "Anukul Satsang Kendra",
                "guid": "20b96fc2dd734ac9a06fdbd15d9c6a39.16"
            }
        },
        {
            "type": "Feature",
            "geometry": {
                "type": "Point",
                "coordinates": [
                    88.472898,
                    22.692162
                ]
            },
            "properties": {
                "pogo_type": "gym",
                "name": "Shiva Temple ",
                "guid": "20d1c96846624a4ab912daca7bca1701.16"
            }
        },
        {
            "type": "Feature",
            "geometry": {
                "type": "Point",
                "coordinates": [
                    88.431135,
                    22.953385
                ]
            },
            "properties": {
                "pogo_type": "gym",
                "name": "Milannagar Water tank",
                "guid": "20d4b6fd1a03447595cc06706f7c564f.16"
            }
        },
        {
            "type": "Feature",
            "geometry": {
                "type": "Point",
                "coordinates": [
                    88.386887,
                    22.450467
                ]
            },
            "properties": {
                "pogo_type": "gym",
                "name": "Ma Kali Temple",
                "guid": "214f09bd8d984e5398ab5988bdd4ea7e.16"
            }
        },
        {
            "type": "Feature",
            "geometry": {
                "type": "Point",
                "coordinates": [
                    88.402549,
                    22.621259
                ]
            },
            "properties": {
                "pogo_type": "gym",
                "name": "Dumdum Hanuman Mandir",
                "guid": "2194b25522264d7c8e201d4754bfb804.16"
            }
        },
        {
            "type": "Feature",
            "geometry": {
                "type": "Point",
                "coordinates": [
                    88.408424,
                    22.587829
                ]
            },
            "properties": {
                "pogo_type": "gym",
                "name": "City Center, Salt Lake",
                "guid": "21aa0bb29206467a9f415b5ecc99d87a.11"
            }
        },
        {
            "type": "Feature",
            "geometry": {
                "type": "Point",
                "coordinates": [
                    88.39843,
                    22.562517
                ]
            },
            "properties": {
                "pogo_type": "gym",
                "name": "Salil Choudhury",
                "guid": "21cd65155d8449a3b4b944ac0df45ef7.16"
            }
        },
        {
            "type": "Feature",
            "geometry": {
                "type": "Point",
                "coordinates": [
                    88.334182,
                    22.537488
                ]
            },
            "properties": {
                "pogo_type": "gym",
                "name": "Like a Rickshaw ",
                "guid": "21d5c68129904aedbaa24b1335b67264.16"
            }
        },
        {
            "type": "Feature",
            "geometry": {
                "type": "Point",
                "coordinates": [
                    88.369936,
                    22.857045
                ]
            },
            "properties": {
                "pogo_type": "gym",
                "name": "Chandannagar Strand",
                "guid": "22a25367cfd04856b122014cb59038e0.16"
            }
        },
        {
            "type": "Feature",
            "geometry": {
                "type": "Point",
                "coordinates": [
                    88.399693,
                    22.61154
                ]
            },
            "properties": {
                "pogo_type": "gym",
                "pogo_ex": true,
                "name": "Kalindi Main Playground",
                "guid": "22d8b7c29b994c78a55131500ee18b29.16"
            }
        },
        {
            "type": "Feature",
            "geometry": {
                "type": "Point",
                "coordinates": [
                    88.209041,
                    22.560841
                ]
            },
            "properties": {
                "pogo_type": "gym",
                "name": "Road Art No.1 At Sankrail Station",
                "guid": "230e51f29f5b4c28a728819b0d72c0ce.16"
            }
        },
        {
            "type": "Feature",
            "geometry": {
                "type": "Point",
                "coordinates": [
                    88.345769,
                    22.666011
                ]
            },
            "properties": {
                "pogo_type": "gym",
                "name": "Ram mandir at B.K.Street",
                "guid": "236ed729c7a64862b217737b7064e5e6.16"
            }
        },
        {
            "type": "Feature",
            "geometry": {
                "type": "Point",
                "coordinates": [
                    88.423447,
                    22.6823
                ]
            },
            "properties": {
                "pogo_type": "gym",
                "name": "Wall paint at Young Generation Sporting Club",
                "guid": "238852495444425fb52bba8453389b85.16"
            }
        },
        {
            "type": "Feature",
            "geometry": {
                "type": "Point",
                "coordinates": [
                    88.376404,
                    22.724558
                ]
            },
            "properties": {
                "pogo_type": "gym",
                "name": "Master Da Surjo Sen",
                "guid": "23c20cf460954a038baa11bca1ee0eaf.16"
            }
        },
        {
            "type": "Feature",
            "geometry": {
                "type": "Point",
                "coordinates": [
                    88.436781,
                    22.920754
                ]
            },
            "properties": {
                "pogo_type": "gym",
                "name": "Mural at Halisahar Railway Station",
                "guid": "240db84ccb8d403cb8a0b806cdb2a78c.16"
            }
        },
        {
            "type": "Feature",
            "geometry": {
                "type": "Point",
                "coordinates": [
                    88.381989,
                    22.47083
                ]
            },
            "properties": {
                "pogo_type": "gym",
                "name": "DipuBapuli Children park",
                "guid": "24752925eac5488db688c8cd2b577b55.16"
            }
        },
        {
            "type": "Feature",
            "geometry": {
                "type": "Point",
                "coordinates": [
                    88.357518,
                    22.65485
                ]
            },
            "properties": {
                "pogo_type": "gym",
                "name": "Dakhsineswar Kali Temple",
                "guid": "247ab5b2928c4773aa5d2cbd106f253c.16"
            }
        },
        {
            "type": "Feature",
            "geometry": {
                "type": "Point",
                "coordinates": [
                    88.372297,
                    22.469942
                ]
            },
            "properties": {
                "pogo_type": "gym",
                "name": "Neel Moni Smriti Mandir",
                "guid": "2483eeef6fbe405c9986285c118b9fa3.16"
            }
        },
        {
            "type": "Feature",
            "geometry": {
                "type": "Point",
                "coordinates": [
                    88.385284,
                    22.573549
                ]
            },
            "properties": {
                "pogo_type": "gym",
                "name": "Sir Gurudas Banerjee Halt",
                "guid": "24c68671ec8d4d67ab8331576fda96f9.16"
            }
        },
        {
            "type": "Feature",
            "geometry": {
                "type": "Point",
                "coordinates": [
                    88.44178,
                    22.928874
                ]
            },
            "properties": {
                "pogo_type": "gym",
                "name": "Itkhola Shitala Mandir",
                "guid": "259ddcdc7b37418296d928e701260853.16"
            }
        },
        {
            "type": "Feature",
            "geometry": {
                "type": "Point",
                "coordinates": [
                    88.346832,
                    22.845702
                ]
            },
            "properties": {
                "pogo_type": "gym",
                "name": "Mankundu Station",
                "guid": "25c460442ea844899a0496a98ab25819.16"
            }
        },
        {
            "type": "Feature",
            "geometry": {
                "type": "Point",
                "coordinates": [
                    88.34409,
                    22.471226
                ]
            },
            "properties": {
                "pogo_type": "gym",
                "name": "MEMORIAL OF B. CHAKROTBORTY",
                "guid": "25e0538a3dec4569a9b206f5a9c561c0.16"
            }
        },
        {
            "type": "Feature",
            "geometry": {
                "type": "Point",
                "coordinates": [
                    88.424457,
                    22.59607
                ]
            },
            "properties": {
                "pogo_type": "gym",
                "name": "Tank No 7",
                "guid": "25f630294fc04b40a503df9e7300e687.16"
            }
        },
        {
            "type": "Feature",
            "geometry": {
                "type": "Point",
                "coordinates": [
                    88.417615,
                    22.443095
                ]
            },
            "properties": {
                "pogo_type": "gym",
                "name": "Radha Gobindo Mandir",
                "guid": "263ade0e964045da9167e2f4790e2aff.16"
            }
        },
        {
            "type": "Feature",
            "geometry": {
                "type": "Point",
                "coordinates": [
                    88.416115,
                    22.625855
                ]
            },
            "properties": {
                "pogo_type": "gym",
                "name": "Dum Dum Children's Park",
                "guid": "2662dc3141a642f3b7f531aed9e00e83.16"
            }
        },
        {
            "type": "Feature",
            "geometry": {
                "type": "Point",
                "coordinates": [
                    88.472415,
                    22.686724
                ]
            },
            "properties": {
                "pogo_type": "gym",
                "name": "Goddess Kali Temple ",
                "guid": "2695ca052c3142ce9f2adc4d48fb20b0.16"
            }
        },
        {
            "type": "Feature",
            "geometry": {
                "type": "Point",
                "coordinates": [
                    88.326248,
                    22.541204
                ]
            },
            "properties": {
                "pogo_type": "gym",
                "name": "Netaji Statue",
                "guid": "26bf9d707efd4f26b166acdcdc671e22.16"
            }
        },
        {
            "type": "Feature",
            "geometry": {
                "type": "Point",
                "coordinates": [
                    88.343115,
                    22.634769
                ]
            },
            "properties": {
                "pogo_type": "gym",
                "name": "Bidhanpally Playground",
                "guid": "26e10df1e52c4bd1a5099da238ee5833.16"
            }
        },
        {
            "type": "Feature",
            "geometry": {
                "type": "Point",
                "coordinates": [
                    88.222192,
                    22.503256
                ]
            },
            "properties": {
                "pogo_type": "gym",
                "name": "RadhaGovinda Temple",
                "guid": "26ed081d8a6949288ec131598ae36a76.16"
            }
        },
        {
            "type": "Feature",
            "geometry": {
                "type": "Point",
                "coordinates": [
                    88.414018,
                    22.938378
                ]
            },
            "properties": {
                "pogo_type": "gym",
                "name": "Ramprasad snan ghat",
                "guid": "271a5cd4b259419d970f678f245c305f.16"
            }
        },
        {
            "type": "Feature",
            "geometry": {
                "type": "Point",
                "coordinates": [
                    88.393143,
                    22.513572
                ]
            },
            "properties": {
                "pogo_type": "gym",
                "name": "Bust of Kishore Kumar",
                "guid": "27276cf254fd4391a2799dc68f4fd684.16"
            }
        },
        {
            "type": "Feature",
            "geometry": {
                "type": "Point",
                "coordinates": [
                    88.446052,
                    22.6857
                ]
            },
            "properties": {
                "pogo_type": "gym",
                "name": "War Memorial",
                "guid": "275c1143ccee416597259ac0aae81cca.16"
            }
        },
        {
            "type": "Feature",
            "geometry": {
                "type": "Point",
                "coordinates": [
                    88.469885,
                    22.711435
                ]
            },
            "properties": {
                "pogo_type": "gym",
                "name": "Shani and Kali Temple ",
                "guid": "276d27d9e1f640248bf6eaf3256c8c47.16"
            }
        },
        {
            "type": "Feature",
            "geometry": {
                "type": "Point",
                "coordinates": [
                    88.379808,
                    22.463851
                ]
            },
            "properties": {
                "pogo_type": "gym",
                "name": "Statue Of Bidrohi Kavi Nazrul Islam",
                "guid": "277c6b22a4a84fe89fc7779e29c454ad.16"
            }
        },
        {
            "type": "Feature",
            "geometry": {
                "type": "Point",
                "coordinates": [
                    88.40038,
                    22.883575
                ]
            },
            "properties": {
                "pogo_type": "gym",
                "pogo_ex": true,
                "name": "Hooghly Mohsin College",
                "guid": "279962c307294b20bd93fd51549e927e.16"
            }
        },
        {
            "type": "Feature",
            "geometry": {
                "type": "Point",
                "coordinates": [
                    88.405586,
                    22.86684
                ]
            },
            "properties": {
                "pogo_type": "gym",
                "name": "Mural at Kankinara Railway Station",
                "guid": "27a30f67642b48e5b67d3bbdbd3a523d.16"
            }
        },
        {
            "type": "Feature",
            "geometry": {
                "type": "Point",
                "coordinates": [
                    88.37849,
                    22.595551
                ]
            },
            "properties": {
                "pogo_type": "gym",
                "name": "Gachtala Shiv Mandir",
                "guid": "2867fa7f95a14451a72c893e5f5d87b3.16"
            }
        },
        {
            "type": "Feature",
            "geometry": {
                "type": "Point",
                "coordinates": [
                    88.344884,
                    22.503238
                ]
            },
            "properties": {
                "pogo_type": "gym",
                "name": "Bust of Indira Gandhi",
                "guid": "2871b1a48a604ce09b68f0d73b3b8102.16"
            }
        },
        {
            "type": "Feature",
            "geometry": {
                "type": "Point",
                "coordinates": [
                    88.36993,
                    22.579875
                ]
            },
            "properties": {
                "pogo_type": "gym",
                "name": "Ananda Mohan College 1961",
                "guid": "287d8f900a384831a8a9e729bedad9c4.16"
            }
        },
        {
            "type": "Feature",
            "geometry": {
                "type": "Point",
                "coordinates": [
                    88.429835,
                    22.621907
                ]
            },
            "properties": {
                "pogo_type": "gym",
                "name": "Shatyam shiva mandir",
                "guid": "28fa460ab0d6469591371f6eff88713d.16"
            }
        },
        {
            "type": "Feature",
            "geometry": {
                "type": "Point",
                "coordinates": [
                    88.386487,
                    22.539077
                ]
            },
            "properties": {
                "pogo_type": "gym",
                "name": "Shiv And Kali Temple",
                "guid": "29c12bc249ef4be2805c88a47c9ee7fb.16"
            }
        },
        {
            "type": "Feature",
            "geometry": {
                "type": "Point",
                "coordinates": [
                    88.36514,
                    22.596999
                ]
            },
            "properties": {
                "pogo_type": "gym",
                "name": "Lal Baba Mandir",
                "guid": "29f9b99ce8b745c89e3605a4e9357513.16"
            }
        },
        {
            "type": "Feature",
            "geometry": {
                "type": "Point",
                "coordinates": [
                    88.367988,
                    22.542144
                ]
            },
            "properties": {
                "pogo_type": "gym",
                "pogo_ex": true,
                "name": "Ruqaiya Park ",
                "guid": "2a5695fe6b0243e28e3fb68b9452be18.16"
            }
        },
        {
            "type": "Feature",
            "geometry": {
                "type": "Point",
                "coordinates": [
                    88.34455,
                    22.572722
                ]
            },
            "properties": {
                "pogo_type": "gym",
                "pogo_ex": true,
                "name": "Entry To Millennium Park",
                "guid": "2a83779f178b45dba1fa9f48b8feb3e8.16"
            }
        },
        {
            "type": "Feature",
            "geometry": {
                "type": "Point",
                "coordinates": [
                    88.343454,
                    22.489018
                ]
            },
            "properties": {
                "pogo_type": "gym",
                "name": "Swami Pranabananda Ji Maharaj Statue",
                "guid": "2ab88ec1bc7741af87a7380529ce7556.16"
            }
        },
        {
            "type": "Feature",
            "geometry": {
                "type": "Point",
                "coordinates": [
                    88.464472,
                    22.562611
                ]
            },
            "properties": {
                "pogo_type": "gym",
                "name": "Aquatica Water Theme Park",
                "guid": "2ad7dbc68de3484aae115f2dbac96aa4.16"
            }
        },
        {
            "type": "Feature",
            "geometry": {
                "type": "Point",
                "coordinates": [
                    88.381981,
                    22.726797
                ]
            },
            "properties": {
                "pogo_type": "gym",
                "name": "Kali Temple",
                "guid": "2b43830ed8264783a35b67e349ef6adb.16"
            }
        },
        {
            "type": "Feature",
            "geometry": {
                "type": "Point",
                "coordinates": [
                    88.444694,
                    22.913844
                ]
            },
            "properties": {
                "pogo_type": "gym",
                "name": "Dighirpar Kali Temple",
                "guid": "2b491e2456434c6ca673ff73a3be0a08.16"
            }
        },
        {
            "type": "Feature",
            "geometry": {
                "type": "Point",
                "coordinates": [
                    88.34366,
                    22.472152
                ]
            },
            "properties": {
                "pogo_type": "gym",
                "name": "AIKATAN PARK",
                "guid": "2b90152483b1438b90aaab08b0fcc5db.16"
            }
        },
        {
            "type": "Feature",
            "geometry": {
                "type": "Point",
                "coordinates": [
                    88.31681,
                    22.525921
                ]
            },
            "properties": {
                "pogo_type": "gym",
                "name": "Remount Road Railway Station",
                "guid": "2b92e4b395f84f1f894f97dff6002012.16"
            }
        },
        {
            "type": "Feature",
            "geometry": {
                "type": "Point",
                "coordinates": [
                    88.317731,
                    22.582718
                ]
            },
            "properties": {
                "pogo_type": "gym",
                "name": "Shree Shree Dashamahavidya Temple",
                "guid": "2baf973091a0427fa90c5593f3f18099.16"
            }
        },
        {
            "type": "Feature",
            "geometry": {
                "type": "Point",
                "coordinates": [
                    88.331932,
                    22.795583
                ]
            },
            "properties": {
                "pogo_type": "gym",
                "name": "Baidyabati Station",
                "guid": "2bb53fe5464b472dae9eda8c835c03f7.16"
            }
        },
        {
            "type": "Feature",
            "geometry": {
                "type": "Point",
                "coordinates": [
                    88.287393,
                    22.559421
                ]
            },
            "properties": {
                "pogo_type": "gym",
                "name": "Gazebo Near The Great Banyan Tree",
                "guid": "2be087f25ced46978e29cb7222c069ff.16"
            }
        },
        {
            "type": "Feature",
            "geometry": {
                "type": "Point",
                "coordinates": [
                    88.322984,
                    22.513017
                ]
            },
            "properties": {
                "pogo_type": "gym",
                "name": "A Street Side Shrine to Lord Shiva",
                "guid": "2c0072ce34b24a89a3c6728dbd54b64a.16"
            }
        },
        {
            "type": "Feature",
            "geometry": {
                "type": "Point",
                "coordinates": [
                    88.37136,
                    22.510507
                ]
            },
            "properties": {
                "pogo_type": "gym",
                "name": "Dhakuria Public Library",
                "guid": "2c1252058435495ea63316f61ff5643b.16"
            }
        },
        {
            "type": "Feature",
            "geometry": {
                "type": "Point",
                "coordinates": [
                    88.36258,
                    22.489069
                ]
            },
            "properties": {
                "pogo_type": "gym",
                "name": "Bijoygarh Thakur Bari",
                "guid": "2c18b6dad82a425fbca13124cedeb3b3.16"
            }
        },
        {
            "type": "Feature",
            "geometry": {
                "type": "Point",
                "coordinates": [
                    88.462455,
                    22.710045
                ]
            },
            "properties": {
                "pogo_type": "gym",
                "name": "sri sri shoni mandir",
                "guid": "2cc23e31cba94dd3952aea14c31e1904.16"
            }
        },
        {
            "type": "Feature",
            "geometry": {
                "type": "Point",
                "coordinates": [
                    88.534998,
                    22.777189
                ]
            },
            "properties": {
                "pogo_type": "gym",
                "name": "Roadside Kali & Shani Temple",
                "guid": "2cd8ff76126d47d58caa98c3cee23a5c.16"
            }
        },
        {
            "type": "Feature",
            "geometry": {
                "type": "Point",
                "coordinates": [
                    88.36595,
                    22.49486
                ]
            },
            "properties": {
                "pogo_type": "gym",
                "name": "Sri Sri Kaibalya Dham",
                "guid": "2cf4409f47e341ed831f43ae4e7329c2.16"
            }
        },
        {
            "type": "Feature",
            "geometry": {
                "type": "Point",
                "coordinates": [
                    88.364094,
                    22.576884
                ]
            },
            "properties": {
                "pogo_type": "gym",
                "name": "Statue Of Rai Krishtodas Pal Bahadur",
                "guid": "2db2115a537644dda8fff3af1a591220.16"
            }
        },
        {
            "type": "Feature",
            "geometry": {
                "type": "Point",
                "coordinates": [
                    88.343408,
                    22.726206
                ]
            },
            "properties": {
                "pogo_type": "gym",
                "name": "Rishra Railway Station",
                "guid": "2df8034b909a4d9d9de815db022d4f45.16"
            }
        },
        {
            "type": "Feature",
            "geometry": {
                "type": "Point",
                "coordinates": [
                    88.376827,
                    22.483015
                ]
            },
            "properties": {
                "pogo_type": "gym",
                "name": "  ",
                "guid": "2e33f97baf454d65b092ff96d242e105.16"
            }
        },
        {
            "type": "Feature",
            "geometry": {
                "type": "Point",
                "coordinates": [
                    88.372672,
                    22.503906
                ]
            },
            "properties": {
                "pogo_type": "gym",
                "name": "Masjid E Alam",
                "guid": "2e7e3b7b4f7144d8823d8d56e326bdd7.16"
            }
        },
        {
            "type": "Feature",
            "geometry": {
                "type": "Point",
                "coordinates": [
                    88.432269,
                    22.615537
                ]
            },
            "properties": {
                "pogo_type": "gym",
                "name": "Statue of Swami Vivekananda.",
                "guid": "2ef1858c650c4255b82873dadf6bf105.16"
            }
        },
        {
            "type": "Feature",
            "geometry": {
                "type": "Point",
                "coordinates": [
                    88.419233,
                    22.885499
                ]
            },
            "properties": {
                "pogo_type": "gym",
                "pogo_ex": true,
                "name": "Naihati Anandabazar Post Office",
                "guid": "2f757ad559f24c598861784d197f74fc.16"
            }
        },
        {
            "type": "Feature",
            "geometry": {
                "type": "Point",
                "coordinates": [
                    88.314057,
                    22.582628
                ]
            },
            "properties": {
                "pogo_type": "gym",
                "name": "Kid's Slide at Bhogini Nibedita Shishu Udyan",
                "guid": "2fbda7ef89fd4f7d9d2afb9aa3149a6a.16"
            }
        },
        {
            "type": "Feature",
            "geometry": {
                "type": "Point",
                "coordinates": [
                    88.347395,
                    22.528213
                ]
            },
            "properties": {
                "pogo_type": "gym",
                "name": "Satya Ranjan Bakshi Smriti Uddyan",
                "guid": "306f032eeb2e468fa310058b118f0abf.16"
            }
        },
        {
            "type": "Feature",
            "geometry": {
                "type": "Point",
                "coordinates": [
                    88.34611,
                    22.513085
                ]
            },
            "properties": {
                "pogo_type": "gym",
                "name": "Shib tara mandir",
                "guid": "3087354fefdf4fbaa4f96af4bba47cd4.16"
            }
        },
        {
            "type": "Feature",
            "geometry": {
                "type": "Point",
                "coordinates": [
                    88.372171,
                    22.585433
                ]
            },
            "properties": {
                "pogo_type": "gym",
                "name": "Hanuman Mandir",
                "guid": "30b9e311040d494ea2d7a118ac60805d.16"
            }
        },
        {
            "type": "Feature",
            "geometry": {
                "type": "Point",
                "coordinates": [
                    88.42821,
                    22.366985
                ]
            },
            "properties": {
                "pogo_type": "gym",
                "name": "Bishalakkhi Mandir, Baruipur",
                "guid": "30bb98b6494f4f3493bba34d6b8faf9a.16"
            }
        },
        {
            "type": "Feature",
            "geometry": {
                "type": "Point",
                "coordinates": [
                    88.307809,
                    22.556605
                ]
            },
            "properties": {
                "pogo_type": "gym",
                "name": "Statue Of R N Tagore",
                "guid": "30bdf5a36929427dbd583b27951c20a7.16"
            }
        },
        {
            "type": "Feature",
            "geometry": {
                "type": "Point",
                "coordinates": [
                    88.394827,
                    22.462357
                ]
            },
            "properties": {
                "pogo_type": "gym",
                "name": "Shree Shree Barobaba Kaalimata Mandir",
                "guid": "30e21dd282b140fe9789180a1e8fd1c4.16"
            }
        },
        {
            "type": "Feature",
            "geometry": {
                "type": "Point",
                "coordinates": [
                    88.320154,
                    22.499229
                ]
            },
            "properties": {
                "pogo_type": "gym",
                "name": "Sitala Mandir",
                "guid": "30e4c4d657154b27b09abd8516da9416.16"
            }
        },
        {
            "type": "Feature",
            "geometry": {
                "type": "Point",
                "coordinates": [
                    88.416546,
                    22.649693
                ]
            },
            "properties": {
                "pogo_type": "gym",
                "name": "Over head water tank",
                "guid": "310a64fbf8674b0bb550babf77641faa.16"
            }
        },
        {
            "type": "Feature",
            "geometry": {
                "type": "Point",
                "coordinates": [
                    88.439376,
                    22.641824
                ]
            },
            "properties": {
                "pogo_type": "gym",
                "name": "3D Durga",
                "guid": "31567f569dbb4d99854b8c3bd44b182d.16"
            }
        },
        {
            "type": "Feature",
            "geometry": {
                "type": "Point",
                "coordinates": [
                    88.303309,
                    22.516697
                ]
            },
            "properties": {
                "pogo_type": "gym",
                "name": "Statute of Chief Minister Joyti Basu",
                "guid": "31e638fac71d4eb5a4c265782ae129cf.16"
            }
        },
        {
            "type": "Feature",
            "geometry": {
                "type": "Point",
                "coordinates": [
                    88.320665,
                    22.564061
                ]
            },
            "properties": {
                "pogo_type": "gym",
                "name": "Swami Vivekananda Statue",
                "guid": "32d195c208754424a5fcc10b538db5ea.16"
            }
        },
        {
            "type": "Feature",
            "geometry": {
                "type": "Point",
                "coordinates": [
                    88.417053,
                    22.892362
                ]
            },
            "properties": {
                "pogo_type": "gym",
                "name": "Temple of Lord Shiva",
                "guid": "330e616b4f1e488589e7ba2df57e9361.16"
            }
        },
        {
            "type": "Feature",
            "geometry": {
                "type": "Point",
                "coordinates": [
                    88.37731,
                    22.890616
                ]
            },
            "properties": {
                "pogo_type": "gym",
                "name": "New Water Tank near Station Road",
                "guid": "332882e39333458f82ff761f53f0a334.16"
            }
        },
        {
            "type": "Feature",
            "geometry": {
                "type": "Point",
                "coordinates": [
                    88.370622,
                    22.600912
                ]
            },
            "properties": {
                "pogo_type": "gym",
                "name": "Statute ",
                "guid": "33c0ab51e7f8462baa82ec6f5594eed1.16"
            }
        },
        {
            "type": "Feature",
            "geometry": {
                "type": "Point",
                "coordinates": [
                    88.397331,
                    22.589976
                ]
            },
            "properties": {
                "pogo_type": "gym",
                "name": "Sishu Tirtha Park Entrance ",
                "guid": "33ced15c0c37486087c568352a0b68af.16"
            }
        },
        {
            "type": "Feature",
            "geometry": {
                "type": "Point",
                "coordinates": [
                    88.285621,
                    22.587995
                ]
            },
            "properties": {
                "pogo_type": "gym",
                "name": "Bust Of Netaji Subash Chandra Bose",
                "guid": "33e4aecd6fe541ad9fcf557f2e3cd173.16"
            }
        },
        {
            "type": "Feature",
            "geometry": {
                "type": "Point",
                "coordinates": [
                    88.460548,
                    22.943436
                ]
            },
            "properties": {
                "pogo_type": "gym",
                "name": "jonepur water tank",
                "guid": "34a66b5e99214dd5ab0757514b21971b.16"
            }
        },
        {
            "type": "Feature",
            "geometry": {
                "type": "Point",
                "coordinates": [
                    88.384233,
                    22.723964
                ]
            },
            "properties": {
                "pogo_type": "gym",
                "name": "Kali And Shiv Temple",
                "guid": "34d4fd9ef8de4d6cab4547fae5f41a35.16"
            }
        },
        {
            "type": "Feature",
            "geometry": {
                "type": "Point",
                "coordinates": [
                    88.399427,
                    22.886809
                ]
            },
            "properties": {
                "pogo_type": "gym",
                "name": "Kali mandir  besides court",
                "guid": "35108e15370f453198c4a8158d9ca4b4.16"
            }
        },
        {
            "type": "Feature",
            "geometry": {
                "type": "Point",
                "coordinates": [
                    88.443237,
                    22.931589
                ]
            },
            "properties": {
                "pogo_type": "gym",
                "name": "Itkhola Saani Mandir",
                "guid": "36311aaa7ed44a07ad5422340445b63c.16"
            }
        },
        {
            "type": "Feature",
            "geometry": {
                "type": "Point",
                "coordinates": [
                    88.401989,
                    22.888605
                ]
            },
            "properties": {
                "pogo_type": "gym",
                "name": "Shiv mandir near post office",
                "guid": "36ed287f54f14590b0dfe465703a4692.16"
            }
        },
        {
            "type": "Feature",
            "geometry": {
                "type": "Point",
                "coordinates": [
                    88.384695,
                    22.565438
                ]
            },
            "properties": {
                "pogo_type": "gym",
                "name": "Old Heritage Mosque",
                "guid": "3725d3181a9240a488c59a30fa035451.16"
            }
        },
        {
            "type": "Feature",
            "geometry": {
                "type": "Point",
                "coordinates": [
                    88.359839,
                    22.512135
                ]
            },
            "properties": {
                "pogo_type": "gym",
                "pogo_ex": true,
                "name": "AMRI Victim Statue",
                "guid": "384f20702d7444a1ba0bda84c2cb5ec5.16"
            }
        },
        {
            "type": "Feature",
            "geometry": {
                "type": "Point",
                "coordinates": [
                    88.466743,
                    22.704936
                ]
            },
            "properties": {
                "pogo_type": "gym",
                "name": "Udayrajpur Sishu Uddyan",
                "guid": "384fff36104e40228fb94265b35add9c.16"
            }
        },
        {
            "type": "Feature",
            "geometry": {
                "type": "Point",
                "coordinates": [
                    88.468488,
                    22.602662
                ]
            },
            "properties": {
                "pogo_type": "gym",
                "pogo_ex": true,
                "name": "The Sitafal Bin",
                "guid": "3851a213111e4597bb48138845e5e1bc.16"
            }
        },
        {
            "type": "Feature",
            "geometry": {
                "type": "Point",
                "coordinates": [
                    88.414534,
                    22.632749
                ]
            },
            "properties": {
                "pogo_type": "gym",
                "name": "Brahmasthan Hanuman Mandir",
                "guid": "38a5fd81aa8142a58eca76fb1947f023.16"
            }
        },
        {
            "type": "Feature",
            "geometry": {
                "type": "Point",
                "coordinates": [
                    88.301479,
                    22.587874
                ]
            },
            "properties": {
                "pogo_type": "gym",
                "name": "Ancient Ram Mandir",
                "guid": "38ba8dfcf4d6417eb11f1b9f684a5384.16"
            }
        },
        {
            "type": "Feature",
            "geometry": {
                "type": "Point",
                "coordinates": [
                    88.401372,
                    22.626893
                ]
            },
            "properties": {
                "pogo_type": "gym",
                "name": "Purba Sinthee Ramkrishna Sangha",
                "guid": "38c1526a94df40f6bce3021ae9a8374d.16"
            }
        },
        {
            "type": "Feature",
            "geometry": {
                "type": "Point",
                "coordinates": [
                    88.40575,
                    22.576968
                ]
            },
            "properties": {
                "pogo_type": "gym",
                "name": "Tagore Statue At Purbachal Island",
                "guid": "38c9215f221d430e83ed7ea0a5a0319d.16"
            }
        },
        {
            "type": "Feature",
            "geometry": {
                "type": "Point",
                "coordinates": [
                    88.42383,
                    22.582584
                ]
            },
            "properties": {
                "pogo_type": "gym",
                "name": "Krishna Mandir",
                "guid": "38ebe1dd2b744a6693570856b0e899da.16"
            }
        },
        {
            "type": "Feature",
            "geometry": {
                "type": "Point",
                "coordinates": [
                    88.384146,
                    22.502489
                ]
            },
            "properties": {
                "pogo_type": "gym",
                "name": "Bust Of Dulal Das Thakur ",
                "guid": "3902aa7c90594442b03b44d99eee4abb.16"
            }
        },
        {
            "type": "Feature",
            "geometry": {
                "type": "Point",
                "coordinates": [
                    88.383555,
                    22.601362
                ]
            },
            "properties": {
                "pogo_type": "gym",
                "name": "Kolkata Railway",
                "guid": "3917b1dcb58546c993c63de001fe685f.16"
            }
        },
        {
            "type": "Feature",
            "geometry": {
                "type": "Point",
                "coordinates": [
                    88.352532,
                    22.552804
                ]
            },
            "properties": {
                "pogo_type": "gym",
                "name": "Flurys",
                "guid": "3962ac3b18124f8897d6e5327a8e3cab.16"
            }
        },
        {
            "type": "Feature",
            "geometry": {
                "type": "Point",
                "coordinates": [
                    88.425834,
                    22.439878
                ]
            },
            "properties": {
                "pogo_type": "gym",
                "name": "Pragati Sangha Sporting Club And Library",
                "guid": "3999cc63fd7441b2a6a50ce876cf0452.16"
            }
        },
        {
            "type": "Feature",
            "geometry": {
                "type": "Point",
                "coordinates": [
                    88.387755,
                    22.672893
                ]
            },
            "properties": {
                "pogo_type": "gym",
                "name": "Texmaco Eco Park",
                "guid": "39e9b8ddc4964432bda5cf3aa50ab17a.16"
            }
        },
        {
            "type": "Feature",
            "geometry": {
                "type": "Point",
                "coordinates": [
                    88.376506,
                    22.46578
                ]
            },
            "properties": {
                "pogo_type": "gym",
                "name": "Shani temple",
                "guid": "3a0e6f76dc374a7d9cc7bdd0f0664f6a.16"
            }
        },
        {
            "type": "Feature",
            "geometry": {
                "type": "Point",
                "coordinates": [
                    88.45674,
                    22.692651
                ]
            },
            "properties": {
                "pogo_type": "gym",
                "name": "Vidyasagar Vidyapith",
                "guid": "3a51766f33074cd2ad2c819a68785124.16"
            }
        },
        {
            "type": "Feature",
            "geometry": {
                "type": "Point",
                "coordinates": [
                    88.427562,
                    22.664668
                ]
            },
            "properties": {
                "pogo_type": "gym",
                "name": "Birati Station ",
                "guid": "3b07c6d8257c46fbb6727092b60bd339.16"
            }
        },
        {
            "type": "Feature",
            "geometry": {
                "type": "Point",
                "coordinates": [
                    88.449153,
                    22.679264
                ]
            },
            "properties": {
                "pogo_type": "gym",
                "name": "3 Men",
                "guid": "3b164423c4fa4efdaef3a90d24ae915e.16"
            }
        },